{
"type": "FeatureCollection",
"name": "usa_major_cities",
"crs": { "type": "name", "properties": { "name": "urn:ogc:def:crs:OGC:1.3:CRS84" } },
"features": [
{ "type": "Feature", "properties": { "fid": 9, "OBJECTID": 9, "NAME": "Birmingham", "CLASS": "city", "STATE_ABBR": "AL", "STATE_FIPS": "01", "PLACE_FIPS": "0107000", "POPULATION": 200733, "POP_CLASS": 8, "POP_SQMI": 1342.2, "SQMI": 149.55, "CAPITAL": "" }, "geometry": { "type": "Point", "coordinates": [ -86.796474013999955, 33.528800838000052 ] } },
{ "type": "Feature", "properties": { "fid": 32, "OBJECTID": 32, "NAME": "Huntsville", "CLASS": "city", "STATE_ABBR": "AL", "STATE_FIPS": "01", "PLACE_FIPS": "0137000", "POPULATION": 215006, "POP_CLASS": 8, "POP_SQMI": 979.3, "SQMI": 219.56, "CAPITAL": "" }, "geometry": { "type": "Point", "coordinates": [ -86.583478176999961, 34.727642950000075 ] } },
{ "type": "Feature", "properties": { "fid": 39, "OBJECTID": 39, "NAME": "Mobile", "CLASS": "city", "STATE_ABBR": "AL", "STATE_FIPS": "01", "PLACE_FIPS": "0150000", "POPULATION": 187041, "POP_CLASS": 8, "POP_SQMI": 1305.3, "SQMI": 143.29, "CAPITAL": "" }, "geometry": { "type": "Point", "coordinates": [ -88.051434327999971, 30.685270168000045 ] } },
{ "type": "Feature", "properties": { "fid": 40, "OBJECTID": 40, "NAME": "Montgomery", "CLASS": "city", "STATE_ABBR": "AL", "STATE_FIPS": "01", "PLACE_FIPS": "0151000", "POPULATION": 200603, "POP_CLASS": 8, "POP_SQMI": 1236.2, "SQMI": 162.27, "CAPITAL": "State" }, "geometry": { "type": "Point", "coordinates": [ -86.303363218999948, 32.377897462000078 ] } },
{ "type": "Feature", "properties": { "fid": 64, "OBJECTID": 64, "NAME": "Anchorage", "CLASS": "municipality", "STATE_ABBR": "AK", "STATE_FIPS": "02", "PLACE_FIPS": "0203000", "POPULATION": 291247, "POP_CLASS": 9, "POP_SQMI": 168.0, "SQMI": 1734.06, "CAPITAL": "" }, "geometry": { "type": "Point", "coordinates": [ -149.867902615999981, 61.218701147000047 ] } },
{ "type": "Feature", "properties": { "fid": 80, "OBJECTID": 80, "NAME": "Chandler", "CLASS": "city", "STATE_ABBR": "AZ", "STATE_FIPS": "04", "PLACE_FIPS": "0412000", "POPULATION": 275987, "POP_CLASS": 9, "POP_SQMI": 4221.9, "SQMI": 65.37, "CAPITAL": "" }, "geometry": { "type": "Point", "coordinates": [ -111.863762, 33.294811860000038 ] } },
{ "type": "Feature", "properties": { "fid": 94, "OBJECTID": 94, "NAME": "Gilbert", "CLASS": "town", "STATE_ABBR": "AZ", "STATE_FIPS": "04", "PLACE_FIPS": "0427400", "POPULATION": 267918, "POP_CLASS": 9, "POP_SQMI": 3895.9, "SQMI": 68.77, "CAPITAL": "" }, "geometry": { "type": "Point", "coordinates": [ -111.787167025999963, 33.332892543000071 ] } },
{ "type": "Feature", "properties": { "fid": 95, "OBJECTID": 95, "NAME": "Glendale", "CLASS": "city", "STATE_ABBR": "AZ", "STATE_FIPS": "04", "PLACE_FIPS": "0427820", "POPULATION": 248325, "POP_CLASS": 8, "POP_SQMI": 4005.2, "SQMI": 62.0, "CAPITAL": "" }, "geometry": { "type": "Point", "coordinates": [ -112.190146281999944, 33.53341922900006 ] } },
{ "type": "Feature", "properties": { "fid": 102, "OBJECTID": 102, "NAME": "Mesa", "CLASS": "city", "STATE_ABBR": "AZ", "STATE_FIPS": "04", "PLACE_FIPS": "0446000", "POPULATION": 504258, "POP_CLASS": 10, "POP_SQMI": 3617.1, "SQMI": 139.41, "CAPITAL": "" }, "geometry": { "type": "Point", "coordinates": [ -111.816324, 33.422707747000061 ] } },
{ "type": "Feature", "properties": { "fid": 109, "OBJECTID": 109, "NAME": "Peoria", "CLASS": "city", "STATE_ABBR": "AZ", "STATE_FIPS": "04", "PLACE_FIPS": "0454050", "POPULATION": 190985, "POP_CLASS": 8, "POP_SQMI": 1065.5, "SQMI": 179.25, "CAPITAL": "" }, "geometry": { "type": "Point", "coordinates": [ -112.239133864999985, 33.575688232000061 ] } },
{ "type": "Feature", "properties": { "fid": 110, "OBJECTID": 110, "NAME": "Phoenix", "CLASS": "city", "STATE_ABBR": "AZ", "STATE_FIPS": "04", "PLACE_FIPS": "0455000", "POPULATION": 1608139, "POP_CLASS": 10, "POP_SQMI": 3097.8, "SQMI": 519.12, "CAPITAL": "State" }, "geometry": { "type": "Point", "coordinates": [ -112.073868092999987, 33.446114308000062 ] } },
{ "type": "Feature", "properties": { "fid": 119, "OBJECTID": 119, "NAME": "Scottsdale", "CLASS": "city", "STATE_ABBR": "AZ", "STATE_FIPS": "04", "PLACE_FIPS": "0465000", "POPULATION": 241361, "POP_CLASS": 8, "POP_SQMI": 1308.6, "SQMI": 184.44, "CAPITAL": "" }, "geometry": { "type": "Point", "coordinates": [ -111.916292318999979, 33.493387892000044 ] } },
{ "type": "Feature", "properties": { "fid": 128, "OBJECTID": 128, "NAME": "Surprise", "CLASS": "city", "STATE_ABBR": "AZ", "STATE_FIPS": "04", "PLACE_FIPS": "0471510", "POPULATION": 143148, "POP_CLASS": 8, "POP_SQMI": 1295.2, "SQMI": 110.52, "CAPITAL": "" }, "geometry": { "type": "Point", "coordinates": [ -112.366596806999951, 33.622703232000049 ] } },
{ "type": "Feature", "properties": { "fid": 130, "OBJECTID": 130, "NAME": "Tempe", "CLASS": "city", "STATE_ABBR": "AZ", "STATE_FIPS": "04", "PLACE_FIPS": "0473000", "POPULATION": 180587, "POP_CLASS": 8, "POP_SQMI": 4496.7, "SQMI": 40.16, "CAPITAL": "" }, "geometry": { "type": "Point", "coordinates": [ -111.932571077999967, 33.426477642000066 ] } },
{ "type": "Feature", "properties": { "fid": 131, "OBJECTID": 131, "NAME": "Tucson", "CLASS": "city", "STATE_ABBR": "AZ", "STATE_FIPS": "04", "PLACE_FIPS": "0477000", "POPULATION": 542629, "POP_CLASS": 10, "POP_SQMI": 2248.7, "SQMI": 241.31, "CAPITAL": "" }, "geometry": { "type": "Point", "coordinates": [ -110.969487413999957, 32.219682818000024 ] } },
{ "type": "Feature", "properties": { "fid": 170, "OBJECTID": 170, "NAME": "Little Rock", "CLASS": "city", "STATE_ABBR": "AR", "STATE_FIPS": "05", "PLACE_FIPS": "0541000", "POPULATION": 202591, "POP_CLASS": 8, "POP_SQMI": 1647.1, "SQMI": 123.0, "CAPITAL": "State" }, "geometry": { "type": "Point", "coordinates": [ -92.272886602999961, 34.74709490500004 ] } },
{ "type": "Feature", "properties": { "fid": 199, "OBJECTID": 199, "NAME": "Anaheim", "CLASS": "city", "STATE_ABBR": "CA", "STATE_FIPS": "06", "PLACE_FIPS": "0602000", "POPULATION": 346824, "POP_CLASS": 9, "POP_SQMI": 6816.5, "SQMI": 50.88, "CAPITAL": "" }, "geometry": { "type": "Point", "coordinates": [ -117.931749499999967, 33.825209222000069 ] } },
{ "type": "Feature", "properties": { "fid": 202, "OBJECTID": 202, "NAME": "Antioch", "CLASS": "city", "STATE_ABBR": "CA", "STATE_FIPS": "06", "PLACE_FIPS": "0602252", "POPULATION": 115291, "POP_CLASS": 8, "POP_SQMI": 3922.8, "SQMI": 29.39, "CAPITAL": "" }, "geometry": { "type": "Point", "coordinates": [ -121.813856099999953, 38.012621144000036 ] } },
{ "type": "Feature", "properties": { "fid": 217, "OBJECTID": 217, "NAME": "Bakersfield", "CLASS": "city", "STATE_ABBR": "CA", "STATE_FIPS": "06", "PLACE_FIPS": "0603526", "POPULATION": 403455, "POP_CLASS": 9, "POP_SQMI": 2667.6, "SQMI": 151.24, "CAPITAL": "" }, "geometry": { "type": "Point", "coordinates": [ -119.01972798099996, 35.366287166000063 ] } },
{ "type": "Feature", "properties": { "fid": 228, "OBJECTID": 228, "NAME": "Berkeley", "CLASS": "city", "STATE_ABBR": "CA", "STATE_FIPS": "06", "PLACE_FIPS": "0606000", "POPULATION": 124321, "POP_CLASS": 8, "POP_SQMI": 11817.6, "SQMI": 10.52, "CAPITAL": "" }, "geometry": { "type": "Point", "coordinates": [ -122.274904498999945, 37.872560252000028 ] } },
{ "type": "Feature", "properties": { "fid": 239, "OBJECTID": 239, "NAME": "Burbank", "CLASS": "city", "STATE_ABBR": "CA", "STATE_FIPS": "06", "PLACE_FIPS": "0608954", "POPULATION": 107337, "POP_CLASS": 8, "POP_SQMI": 6186.6, "SQMI": 17.35, "CAPITAL": "" }, "geometry": { "type": "Point", "coordinates": [ -118.323423813999966, 34.187974852000025 ] } },
{ "type": "Feature", "properties": { "fid": 249, "OBJECTID": 249, "NAME": "Carlsbad", "CLASS": "city", "STATE_ABBR": "CA", "STATE_FIPS": "06", "PLACE_FIPS": "0611194", "POPULATION": 114746, "POP_CLASS": 8, "POP_SQMI": 3022.0, "SQMI": 37.97, "CAPITAL": "" }, "geometry": { "type": "Point", "coordinates": [ -117.324094668999976, 33.163491308000062 ] } },
{ "type": "Feature", "properties": { "fid": 260, "OBJECTID": 260, "NAME": "Chico", "CLASS": "city", "STATE_ABBR": "CA", "STATE_FIPS": "06", "PLACE_FIPS": "0613014", "POPULATION": 101475, "POP_CLASS": 8, "POP_SQMI": 2957.6, "SQMI": 34.31, "CAPITAL": "" }, "geometry": { "type": "Point", "coordinates": [ -121.83687862, 39.73479369000006 ] } },
{ "type": "Feature", "properties": { "fid": 264, "OBJECTID": 264, "NAME": "Chula Vista", "CLASS": "city", "STATE_ABBR": "CA", "STATE_FIPS": "06", "PLACE_FIPS": "0613392", "POPULATION": 275487, "POP_CLASS": 9, "POP_SQMI": 5526.3, "SQMI": 49.85, "CAPITAL": "" }, "geometry": { "type": "Point", "coordinates": [ -117.069208574999948, 32.637964378000049 ] } },
{ "type": "Feature", "properties": { "fid": 270, "OBJECTID": 270, "NAME": "Clovis", "CLASS": "city", "STATE_ABBR": "CA", "STATE_FIPS": "06", "PLACE_FIPS": "0614218", "POPULATION": 120124, "POP_CLASS": 8, "POP_SQMI": 4705.2, "SQMI": 25.53, "CAPITAL": "" }, "geometry": { "type": "Point", "coordinates": [ -119.686367440999959, 36.82690948100003 ] } },
{ "type": "Feature", "properties": { "fid": 276, "OBJECTID": 276, "NAME": "Concord", "CLASS": "city", "STATE_ABBR": "CA", "STATE_FIPS": "06", "PLACE_FIPS": "0616000", "POPULATION": 125410, "POP_CLASS": 8, "POP_SQMI": 4105.1, "SQMI": 30.55, "CAPITAL": "" }, "geometry": { "type": "Point", "coordinates": [ -122.001267891999987, 37.972150082000041 ] } },
{ "type": "Feature", "properties": { "fid": 278, "OBJECTID": 278, "NAME": "Corona", "CLASS": "city", "STATE_ABBR": "CA", "STATE_FIPS": "06", "PLACE_FIPS": "0616350", "POPULATION": 157136, "POP_CLASS": 8, "POP_SQMI": 3932.3, "SQMI": 39.96, "CAPITAL": "" }, "geometry": { "type": "Point", "coordinates": [ -117.564240952999967, 33.862353397000049 ] } },
{ "type": "Feature", "properties": { "fid": 280, "OBJECTID": 280, "NAME": "Costa Mesa", "CLASS": "city", "STATE_ABBR": "CA", "STATE_FIPS": "06", "PLACE_FIPS": "0616532", "POPULATION": 111918, "POP_CLASS": 8, "POP_SQMI": 7074.5, "SQMI": 15.82, "CAPITAL": "" }, "geometry": { "type": "Point", "coordinates": [ -117.913453009999955, 33.666722090000064 ] } },
{ "type": "Feature", "properties": { "fid": 288, "OBJECTID": 288, "NAME": "Daly City", "CLASS": "city", "STATE_ABBR": "CA", "STATE_FIPS": "06", "PLACE_FIPS": "0617918", "POPULATION": 104901, "POP_CLASS": 8, "POP_SQMI": 13730.5, "SQMI": 7.64, "CAPITAL": "" }, "geometry": { "type": "Point", "coordinates": [ -122.476749867999956, 37.673895147000053 ] } },
{ "type": "Feature", "properties": { "fid": 304, "OBJECTID": 304, "NAME": "Downey", "CLASS": "city", "STATE_ABBR": "CA", "STATE_FIPS": "06", "PLACE_FIPS": "0619766", "POPULATION": 114355, "POP_CLASS": 8, "POP_SQMI": 9097.5, "SQMI": 12.57, "CAPITAL": "" }, "geometry": { "type": "Point", "coordinates": [ -118.13114292399996, 33.937879163000048 ] } },
{ "type": "Feature", "properties": { "fid": 308, "OBJECTID": 308, "NAME": "East Los Angeles", "CLASS": "Census Designated Place", "STATE_ABBR": "CA", "STATE_FIPS": "06", "PLACE_FIPS": "0620802", "POPULATION": 118786, "POP_CLASS": 8, "POP_SQMI": 15923.1, "SQMI": 7.46, "CAPITAL": "" }, "geometry": { "type": "Point", "coordinates": [ -118.169146435999949, 34.03263639100004 ] } },
{ "type": "Feature", "properties": { "fid": 313, "OBJECTID": 313, "NAME": "El Cajon", "CLASS": "city", "STATE_ABBR": "CA", "STATE_FIPS": "06", "PLACE_FIPS": "0621712", "POPULATION": 106215, "POP_CLASS": 8, "POP_SQMI": 7320.1, "SQMI": 14.51, "CAPITAL": "" }, "geometry": { "type": "Point", "coordinates": [ -116.960384179999949, 32.801698401000067 ] } },
{ "type": "Feature", "properties": { "fid": 317, "OBJECTID": 317, "NAME": "Elk Grove", "CLASS": "city", "STATE_ABBR": "CA", "STATE_FIPS": "06", "PLACE_FIPS": "0622020", "POPULATION": 176124, "POP_CLASS": 8, "POP_SQMI": 4173.6, "SQMI": 42.2, "CAPITAL": "" }, "geometry": { "type": "Point", "coordinates": [ -121.378695, 38.412611724000044 ] } },
{ "type": "Feature", "properties": { "fid": 318, "OBJECTID": 318, "NAME": "El Monte", "CLASS": "city", "STATE_ABBR": "CA", "STATE_FIPS": "06", "PLACE_FIPS": "0622230", "POPULATION": 109450, "POP_CLASS": 8, "POP_SQMI": 11353.7, "SQMI": 9.64, "CAPITAL": "" }, "geometry": { "type": "Point", "coordinates": [ -118.029074031, 34.073927776000062 ] } },
{ "type": "Feature", "properties": { "fid": 325, "OBJECTID": 325, "NAME": "Escondido", "CLASS": "city", "STATE_ABBR": "CA", "STATE_FIPS": "06", "PLACE_FIPS": "0622804", "POPULATION": 151038, "POP_CLASS": 8, "POP_SQMI": 4033.1, "SQMI": 37.45, "CAPITAL": "" }, "geometry": { "type": "Point", "coordinates": [ -117.072258811999973, 33.134525102000055 ] } },
{ "type": "Feature", "properties": { "fid": 328, "OBJECTID": 328, "NAME": "Fairfield", "CLASS": "city", "STATE_ABBR": "CA", "STATE_FIPS": "06", "PLACE_FIPS": "0623182", "POPULATION": 119881, "POP_CLASS": 8, "POP_SQMI": 2862.5, "SQMI": 41.88, "CAPITAL": "" }, "geometry": { "type": "Point", "coordinates": [ -122.04895999699994, 38.247905909000053 ] } },
{ "type": "Feature", "properties": { "fid": 337, "OBJECTID": 337, "NAME": "Fontana", "CLASS": "city", "STATE_ABBR": "CA", "STATE_FIPS": "06", "PLACE_FIPS": "0624680", "POPULATION": 208393, "POP_CLASS": 8, "POP_SQMI": 4838.5, "SQMI": 43.07, "CAPITAL": "" }, "geometry": { "type": "Point", "coordinates": [ -117.431870249999974, 34.087799852000046 ] } },
{ "type": "Feature", "properties": { "fid": 342, "OBJECTID": 342, "NAME": "Fremont", "CLASS": "city", "STATE_ABBR": "CA", "STATE_FIPS": "06", "PLACE_FIPS": "0626000", "POPULATION": 230504, "POP_CLASS": 8, "POP_SQMI": 2907.5, "SQMI": 79.28, "CAPITAL": "" }, "geometry": { "type": "Point", "coordinates": [ -121.976218298, 37.55074473500008 ] } },
{ "type": "Feature", "properties": { "fid": 344, "OBJECTID": 344, "NAME": "Fresno", "CLASS": "city", "STATE_ABBR": "CA", "STATE_FIPS": "06", "PLACE_FIPS": "0627000", "POPULATION": 542107, "POP_CLASS": 10, "POP_SQMI": 4658.1, "SQMI": 116.38, "CAPITAL": "" }, "geometry": { "type": "Point", "coordinates": [ -119.793795, 36.742436069000064 ] } },
{ "type": "Feature", "properties": { "fid": 345, "OBJECTID": 345, "NAME": "Fullerton", "CLASS": "city", "STATE_ABBR": "CA", "STATE_FIPS": "06", "PLACE_FIPS": "0628000", "POPULATION": 143617, "POP_CLASS": 8, "POP_SQMI": 6402.9, "SQMI": 22.43, "CAPITAL": "" }, "geometry": { "type": "Point", "coordinates": [ -117.927919746999976, 33.884063181000045 ] } },
{ "type": "Feature", "properties": { "fid": 349, "OBJECTID": 349, "NAME": "Garden Grove", "CLASS": "city", "STATE_ABBR": "CA", "STATE_FIPS": "06", "PLACE_FIPS": "0629000", "POPULATION": 171949, "POP_CLASS": 8, "POP_SQMI": 9568.7, "SQMI": 17.97, "CAPITAL": "" }, "geometry": { "type": "Point", "coordinates": [ -117.960120733999986, 33.778706149000072 ] } },
{ "type": "Feature", "properties": { "fid": 351, "OBJECTID": 351, "NAME": "Glendale", "CLASS": "city", "STATE_ABBR": "CA", "STATE_FIPS": "06", "PLACE_FIPS": "0630000", "POPULATION": 196543, "POP_CLASS": 8, "POP_SQMI": 6420.9, "SQMI": 30.61, "CAPITAL": "" }, "geometry": { "type": "Point", "coordinates": [ -118.249267730999975, 34.145094267000047 ] } },
{ "type": "Feature", "properties": { "fid": 364, "OBJECTID": 364, "NAME": "Hayward", "CLASS": "city", "STATE_ABBR": "CA", "STATE_FIPS": "06", "PLACE_FIPS": "0633000", "POPULATION": 162954, "POP_CLASS": 8, "POP_SQMI": 3571.2, "SQMI": 45.63, "CAPITAL": "" }, "geometry": { "type": "Point", "coordinates": [ -122.081676954999978, 37.673449435000066 ] } },
{ "type": "Feature", "properties": { "fid": 374, "OBJECTID": 374, "NAME": "Huntington Beach", "CLASS": "city", "STATE_ABBR": "CA", "STATE_FIPS": "06", "PLACE_FIPS": "0636000", "POPULATION": 198711, "POP_CLASS": 8, "POP_SQMI": 7340.6, "SQMI": 27.07, "CAPITAL": "" }, "geometry": { "type": "Point", "coordinates": [ -118.000937829999941, 33.694910274000051 ] } },
{ "type": "Feature", "properties": { "fid": 379, "OBJECTID": 379, "NAME": "Inglewood", "CLASS": "city", "STATE_ABBR": "CA", "STATE_FIPS": "06", "PLACE_FIPS": "0636546", "POPULATION": 107762, "POP_CLASS": 8, "POP_SQMI": 11855.0, "SQMI": 9.09, "CAPITAL": "" }, "geometry": { "type": "Point", "coordinates": [ -118.344298077999952, 33.956459191000079 ] } },
{ "type": "Feature", "properties": { "fid": 380, "OBJECTID": 380, "NAME": "Irvine", "CLASS": "city", "STATE_ABBR": "CA", "STATE_FIPS": "06", "PLACE_FIPS": "0636770", "POPULATION": 307670, "POP_CLASS": 9, "POP_SQMI": 4667.3, "SQMI": 65.92, "CAPITAL": "" }, "geometry": { "type": "Point", "coordinates": [ -117.815661074, 33.690644851000059 ] } },
{ "type": "Feature", "properties": { "fid": 404, "OBJECTID": 404, "NAME": "Lancaster", "CLASS": "city", "STATE_ABBR": "CA", "STATE_FIPS": "06", "PLACE_FIPS": "0640130", "POPULATION": 173516, "POP_CLASS": 8, "POP_SQMI": 1835.8, "SQMI": 94.52, "CAPITAL": "" }, "geometry": { "type": "Point", "coordinates": [ -118.151004296999986, 34.69736869500008 ] } },
{ "type": "Feature", "properties": { "fid": 428, "OBJECTID": 428, "NAME": "Long Beach", "CLASS": "city", "STATE_ABBR": "CA", "STATE_FIPS": "06", "PLACE_FIPS": "0643000", "POPULATION": 466742, "POP_CLASS": 9, "POP_SQMI": 9017.4, "SQMI": 51.76, "CAPITAL": "" }, "geometry": { "type": "Point", "coordinates": [ -118.188690564999945, 33.771003778000079 ] } },
{ "type": "Feature", "properties": { "fid": 431, "OBJECTID": 431, "NAME": "Los Angeles", "CLASS": "city", "STATE_ABBR": "CA", "STATE_FIPS": "06", "PLACE_FIPS": "0644000", "POPULATION": 3898747, "POP_CLASS": 10, "POP_SQMI": 8239.8, "SQMI": 473.16, "CAPITAL": "" }, "geometry": { "type": "Point", "coordinates": [ -118.270582263999984, 34.052789609000058 ] } },
{ "type": "Feature", "properties": { "fid": 449, "OBJECTID": 449, "NAME": "Menifee", "CLASS": "city", "STATE_ABBR": "CA", "STATE_FIPS": "06", "PLACE_FIPS": "0646842", "POPULATION": 102527, "POP_CLASS": 8, "POP_SQMI": 2199.2, "SQMI": 46.62, "CAPITAL": "" }, "geometry": { "type": "Point", "coordinates": [ -117.15633083299997, 33.68261556300007 ] } },
{ "type": "Feature", "properties": { "fid": 456, "OBJECTID": 456, "NAME": "Modesto", "CLASS": "city", "STATE_ABBR": "CA", "STATE_FIPS": "06", "PLACE_FIPS": "0648354", "POPULATION": 218464, "POP_CLASS": 8, "POP_SQMI": 4868.8, "SQMI": 44.87, "CAPITAL": "" }, "geometry": { "type": "Point", "coordinates": [ -120.988888553999971, 37.660655473000077 ] } },
{ "type": "Feature", "properties": { "fid": 464, "OBJECTID": 464, "NAME": "Moreno Valley", "CLASS": "city", "STATE_ABBR": "CA", "STATE_FIPS": "06", "PLACE_FIPS": "0649270", "POPULATION": 208634, "POP_CLASS": 8, "POP_SQMI": 4048.0, "SQMI": 51.54, "CAPITAL": "" }, "geometry": { "type": "Point", "coordinates": [ -117.250891684999942, 33.918479802000036 ] } },
{ "type": "Feature", "properties": { "fid": 469, "OBJECTID": 469, "NAME": "Murrieta", "CLASS": "city", "STATE_ABBR": "CA", "STATE_FIPS": "06", "PLACE_FIPS": "0650076", "POPULATION": 110949, "POP_CLASS": 8, "POP_SQMI": 3297.1, "SQMI": 33.65, "CAPITAL": "" }, "geometry": { "type": "Point", "coordinates": [ -117.190915060999941, 33.571979504000069 ] } },
{ "type": "Feature", "properties": { "fid": 482, "OBJECTID": 482, "NAME": "Norwalk", "CLASS": "city", "STATE_ABBR": "CA", "STATE_FIPS": "06", "PLACE_FIPS": "0652526", "POPULATION": 102773, "POP_CLASS": 8, "POP_SQMI": 10551.6, "SQMI": 9.74, "CAPITAL": "" }, "geometry": { "type": "Point", "coordinates": [ -118.082909284999971, 33.906890085000043 ] } },
{ "type": "Feature", "properties": { "fid": 485, "OBJECTID": 485, "NAME": "Oakland", "CLASS": "city", "STATE_ABBR": "CA", "STATE_FIPS": "06", "PLACE_FIPS": "0653000", "POPULATION": 440646, "POP_CLASS": 9, "POP_SQMI": 7829.5, "SQMI": 56.28, "CAPITAL": "" }, "geometry": { "type": "Point", "coordinates": [ -122.296042954999962, 37.810578093000061 ] } },
{ "type": "Feature", "properties": { "fid": 488, "OBJECTID": 488, "NAME": "Oceanside", "CLASS": "city", "STATE_ABBR": "CA", "STATE_FIPS": "06", "PLACE_FIPS": "0653322", "POPULATION": 174068, "POP_CLASS": 8, "POP_SQMI": 4138.6, "SQMI": 42.06, "CAPITAL": "" }, "geometry": { "type": "Point", "coordinates": [ -117.356780045, 33.204058141000075 ] } },
{ "type": "Feature", "properties": { "fid": 491, "OBJECTID": 491, "NAME": "Ontario", "CLASS": "city", "STATE_ABBR": "CA", "STATE_FIPS": "06", "PLACE_FIPS": "0653896", "POPULATION": 175265, "POP_CLASS": 8, "POP_SQMI": 3505.3, "SQMI": 50.0, "CAPITAL": "" }, "geometry": { "type": "Point", "coordinates": [ -117.64496173699996, 34.065697928000077 ] } },
{ "type": "Feature", "properties": { "fid": 492, "OBJECTID": 492, "NAME": "Orange", "CLASS": "city", "STATE_ABBR": "CA", "STATE_FIPS": "06", "PLACE_FIPS": "0653980", "POPULATION": 139911, "POP_CLASS": 8, "POP_SQMI": 5418.7, "SQMI": 25.82, "CAPITAL": "" }, "geometry": { "type": "Point", "coordinates": [ -117.860993, 33.804999821000024 ] } },
{ "type": "Feature", "properties": { "fid": 497, "OBJECTID": 497, "NAME": "Oxnard", "CLASS": "city", "STATE_ABBR": "CA", "STATE_FIPS": "06", "PLACE_FIPS": "0654652", "POPULATION": 202063, "POP_CLASS": 8, "POP_SQMI": 7559.4, "SQMI": 26.73, "CAPITAL": "" }, "geometry": { "type": "Point", "coordinates": [ -119.175259190999952, 34.195870174000049 ] } },
{ "type": "Feature", "properties": { "fid": 500, "OBJECTID": 500, "NAME": "Palmdale", "CLASS": "city", "STATE_ABBR": "CA", "STATE_FIPS": "06", "PLACE_FIPS": "0655156", "POPULATION": 169450, "POP_CLASS": 8, "POP_SQMI": 1593.9, "SQMI": 106.31, "CAPITAL": "" }, "geometry": { "type": "Point", "coordinates": [ -118.110425288999977, 34.573560127000064 ] } },
{ "type": "Feature", "properties": { "fid": 509, "OBJECTID": 509, "NAME": "Pasadena", "CLASS": "city", "STATE_ABBR": "CA", "STATE_FIPS": "06", "PLACE_FIPS": "0656000", "POPULATION": 138699, "POP_CLASS": 8, "POP_SQMI": 6004.3, "SQMI": 23.1, "CAPITAL": "" }, "geometry": { "type": "Point", "coordinates": [ -118.13891285699998, 34.159755003000043 ] } },
{ "type": "Feature", "properties": { "fid": 522, "OBJECTID": 522, "NAME": "Pomona", "CLASS": "city", "STATE_ABBR": "CA", "STATE_FIPS": "06", "PLACE_FIPS": "0658072", "POPULATION": 151713, "POP_CLASS": 8, "POP_SQMI": 6599.1, "SQMI": 22.99, "CAPITAL": "" }, "geometry": { "type": "Point", "coordinates": [ -117.762555047999967, 34.058505946000025 ] } },
{ "type": "Feature", "properties": { "fid": 530, "OBJECTID": 530, "NAME": "Rancho Cucamonga", "CLASS": "city", "STATE_ABBR": "CA", "STATE_FIPS": "06", "PLACE_FIPS": "0659451", "POPULATION": 174453, "POP_CLASS": 8, "POP_SQMI": 4348.3, "SQMI": 40.12, "CAPITAL": "" }, "geometry": { "type": "Point", "coordinates": [ -117.55778, 34.112174798000069 ] } },
{ "type": "Feature", "properties": { "fid": 541, "OBJECTID": 541, "NAME": "Rialto", "CLASS": "city", "STATE_ABBR": "CA", "STATE_FIPS": "06", "PLACE_FIPS": "0660466", "POPULATION": 104026, "POP_CLASS": 8, "POP_SQMI": 4318.2, "SQMI": 24.09, "CAPITAL": "" }, "geometry": { "type": "Point", "coordinates": [ -117.388598875999946, 34.112962703000051 ] } },
{ "type": "Feature", "properties": { "fid": 542, "OBJECTID": 542, "NAME": "Richmond", "CLASS": "city", "STATE_ABBR": "CA", "STATE_FIPS": "06", "PLACE_FIPS": "0660620", "POPULATION": 116448, "POP_CLASS": 8, "POP_SQMI": 3858.4, "SQMI": 30.18, "CAPITAL": "" }, "geometry": { "type": "Point", "coordinates": [ -122.345854083999939, 37.936316426000076 ] } },
{ "type": "Feature", "properties": { "fid": 547, "OBJECTID": 547, "NAME": "Riverside", "CLASS": "city", "STATE_ABBR": "CA", "STATE_FIPS": "06", "PLACE_FIPS": "0662000", "POPULATION": 314998, "POP_CLASS": 9, "POP_SQMI": 3863.1, "SQMI": 81.54, "CAPITAL": "" }, "geometry": { "type": "Point", "coordinates": [ -117.39483594099994, 33.938156812000045 ] } },
{ "type": "Feature", "properties": { "fid": 554, "OBJECTID": 554, "NAME": "Roseville", "CLASS": "city", "STATE_ABBR": "CA", "STATE_FIPS": "06", "PLACE_FIPS": "0662938", "POPULATION": 147773, "POP_CLASS": 8, "POP_SQMI": 3352.4, "SQMI": 44.08, "CAPITAL": "" }, "geometry": { "type": "Point", "coordinates": [ -121.280457588, 38.751534714000059 ] } },
{ "type": "Feature", "properties": { "fid": 557, "OBJECTID": 557, "NAME": "Sacramento", "CLASS": "city", "STATE_ABBR": "CA", "STATE_FIPS": "06", "PLACE_FIPS": "0664000", "POPULATION": 524943, "POP_CLASS": 10, "POP_SQMI": 5212.9, "SQMI": 100.7, "CAPITAL": "State" }, "geometry": { "type": "Point", "coordinates": [ -121.468298933999961, 38.56664113800008 ] } },
{ "type": "Feature", "properties": { "fid": 559, "OBJECTID": 559, "NAME": "Salinas", "CLASS": "city", "STATE_ABBR": "CA", "STATE_FIPS": "06", "PLACE_FIPS": "0664224", "POPULATION": 163542, "POP_CLASS": 8, "POP_SQMI": 6944.5, "SQMI": 23.55, "CAPITAL": "" }, "geometry": { "type": "Point", "coordinates": [ -121.631437693999942, 36.688217653000038 ] } },
{ "type": "Feature", "properties": { "fid": 561, "OBJECTID": 561, "NAME": "San Bernardino", "CLASS": "city", "STATE_ABBR": "CA", "STATE_FIPS": "06", "PLACE_FIPS": "0665000", "POPULATION": 222101, "POP_CLASS": 8, "POP_SQMI": 3555.9, "SQMI": 62.46, "CAPITAL": "" }, "geometry": { "type": "Point", "coordinates": [ -117.284954844999959, 34.108534752000025 ] } },
{ "type": "Feature", "properties": { "fid": 563, "OBJECTID": 563, "NAME": "San Buenaventura (Ventura)", "CLASS": "city", "STATE_ABBR": "CA", "STATE_FIPS": "06", "PLACE_FIPS": "0665042", "POPULATION": 110763, "POP_CLASS": 8, "POP_SQMI": 5039.3, "SQMI": 21.98, "CAPITAL": "" }, "geometry": { "type": "Point", "coordinates": [ -119.229151990999981, 34.273988083000063 ] } },
{ "type": "Feature", "properties": { "fid": 566, "OBJECTID": 566, "NAME": "San Diego", "CLASS": "city", "STATE_ABBR": "CA", "STATE_FIPS": "06", "PLACE_FIPS": "0666000", "POPULATION": 1386932, "POP_CLASS": 10, "POP_SQMI": 4210.0, "SQMI": 329.44, "CAPITAL": "" }, "geometry": { "type": "Point", "coordinates": [ -117.145564123999975, 32.720328704000053 ] } },
{ "type": "Feature", "properties": { "fid": 570, "OBJECTID": 570, "NAME": "San Francisco", "CLASS": "city", "STATE_ABBR": "CA", "STATE_FIPS": "06", "PLACE_FIPS": "0667000", "POPULATION": 873965, "POP_CLASS": 10, "POP_SQMI": 18465.3, "SQMI": 47.33, "CAPITAL": "" }, "geometry": { "type": "Point", "coordinates": [ -122.442449568999962, 37.766923554000073 ] } },
{ "type": "Feature", "properties": { "fid": 574, "OBJECTID": 574, "NAME": "San Jose", "CLASS": "city", "STATE_ABBR": "CA", "STATE_FIPS": "06", "PLACE_FIPS": "0668000", "POPULATION": 1013240, "POP_CLASS": 10, "POP_SQMI": 5616.6, "SQMI": 180.4, "CAPITAL": "" }, "geometry": { "type": "Point", "coordinates": [ -121.886414922999961, 37.339413974000024 ] } },
{ "type": "Feature", "properties": { "fid": 581, "OBJECTID": 581, "NAME": "San Mateo", "CLASS": "city", "STATE_ABBR": "CA", "STATE_FIPS": "06", "PLACE_FIPS": "0668252", "POPULATION": 105661, "POP_CLASS": 8, "POP_SQMI": 8717.9, "SQMI": 12.12, "CAPITAL": "" }, "geometry": { "type": "Point", "coordinates": [ -122.314367420999986, 37.551290490000042 ] } },
{ "type": "Feature", "properties": { "fid": 585, "OBJECTID": 585, "NAME": "Santa Ana", "CLASS": "city", "STATE_ABBR": "CA", "STATE_FIPS": "06", "PLACE_FIPS": "0669000", "POPULATION": 310227, "POP_CLASS": 9, "POP_SQMI": 11334.6, "SQMI": 27.37, "CAPITAL": "" }, "geometry": { "type": "Point", "coordinates": [ -117.881863970999973, 33.73662414000006 ] } },
{ "type": "Feature", "properties": { "fid": 587, "OBJECTID": 587, "NAME": "Santa Clara", "CLASS": "city", "STATE_ABBR": "CA", "STATE_FIPS": "06", "PLACE_FIPS": "0669084", "POPULATION": 127647, "POP_CLASS": 8, "POP_SQMI": 6982.9, "SQMI": 18.28, "CAPITAL": "" }, "geometry": { "type": "Point", "coordinates": [ -121.967935117999957, 37.364665482000078 ] } },
{ "type": "Feature", "properties": { "fid": 588, "OBJECTID": 588, "NAME": "Santa Clarita", "CLASS": "city", "STATE_ABBR": "CA", "STATE_FIPS": "06", "PLACE_FIPS": "0669088", "POPULATION": 228673, "POP_CLASS": 8, "POP_SQMI": 3228.9, "SQMI": 70.82, "CAPITAL": "" }, "geometry": { "type": "Point", "coordinates": [ -118.553498704999981, 34.411434099000076 ] } },
{ "type": "Feature", "properties": { "fid": 591, "OBJECTID": 591, "NAME": "Santa Maria", "CLASS": "city", "STATE_ABBR": "CA", "STATE_FIPS": "06", "PLACE_FIPS": "0669196", "POPULATION": 109707, "POP_CLASS": 8, "POP_SQMI": 4684.3, "SQMI": 23.42, "CAPITAL": "" }, "geometry": { "type": "Point", "coordinates": [ -120.443362197999988, 34.933456212000067 ] } },
{ "type": "Feature", "properties": { "fid": 594, "OBJECTID": 594, "NAME": "Santa Rosa", "CLASS": "city", "STATE_ABBR": "CA", "STATE_FIPS": "06", "PLACE_FIPS": "0670098", "POPULATION": 178127, "POP_CLASS": 8, "POP_SQMI": 4171.6, "SQMI": 42.7, "CAPITAL": "" }, "geometry": { "type": "Point", "coordinates": [ -122.699859432999972, 38.449292008000043 ] } },
{ "type": "Feature", "properties": { "fid": 604, "OBJECTID": 604, "NAME": "Simi Valley", "CLASS": "city", "STATE_ABBR": "CA", "STATE_FIPS": "06", "PLACE_FIPS": "0672016", "POPULATION": 126356, "POP_CLASS": 8, "POP_SQMI": 2990.7, "SQMI": 42.25, "CAPITAL": "" }, "geometry": { "type": "Point", "coordinates": [ -118.720247721999954, 34.287776898000061 ] } },
{ "type": "Feature", "properties": { "fid": 619, "OBJECTID": 619, "NAME": "Stockton", "CLASS": "city", "STATE_ABBR": "CA", "STATE_FIPS": "06", "PLACE_FIPS": "0675000", "POPULATION": 320804, "POP_CLASS": 9, "POP_SQMI": 4914.3, "SQMI": 65.28, "CAPITAL": "" }, "geometry": { "type": "Point", "coordinates": [ -121.301877499999989, 37.96628634700005 ] } },
{ "type": "Feature", "properties": { "fid": 621, "OBJECTID": 621, "NAME": "Sunnyvale", "CLASS": "city", "STATE_ABBR": "CA", "STATE_FIPS": "06", "PLACE_FIPS": "0677000", "POPULATION": 155805, "POP_CLASS": 8, "POP_SQMI": 7056.4, "SQMI": 22.08, "CAPITAL": "" }, "geometry": { "type": "Point", "coordinates": [ -122.024808590999953, 37.381716668000024 ] } },
{ "type": "Feature", "properties": { "fid": 626, "OBJECTID": 626, "NAME": "Temecula", "CLASS": "city", "STATE_ABBR": "CA", "STATE_FIPS": "06", "PLACE_FIPS": "0678120", "POPULATION": 110003, "POP_CLASS": 8, "POP_SQMI": 2950.7, "SQMI": 37.28, "CAPITAL": "" }, "geometry": { "type": "Point", "coordinates": [ -117.134479350999982, 33.504048065000063 ] } },
{ "type": "Feature", "properties": { "fid": 628, "OBJECTID": 628, "NAME": "Thousand Oaks", "CLASS": "city", "STATE_ABBR": "CA", "STATE_FIPS": "06", "PLACE_FIPS": "0678582", "POPULATION": 126966, "POP_CLASS": 8, "POP_SQMI": 2291.8, "SQMI": 55.4, "CAPITAL": "" }, "geometry": { "type": "Point", "coordinates": [ -118.84558055499997, 34.176107364000075 ] } },
{ "type": "Feature", "properties": { "fid": 629, "OBJECTID": 629, "NAME": "Torrance", "CLASS": "city", "STATE_ABBR": "CA", "STATE_FIPS": "06", "PLACE_FIPS": "0680000", "POPULATION": 147067, "POP_CLASS": 8, "POP_SQMI": 7156.5, "SQMI": 20.55, "CAPITAL": "" }, "geometry": { "type": "Point", "coordinates": [ -118.341637501999969, 33.834598813000071 ] } },
{ "type": "Feature", "properties": { "fid": 639, "OBJECTID": 639, "NAME": "Vacaville", "CLASS": "city", "STATE_ABBR": "CA", "STATE_FIPS": "06", "PLACE_FIPS": "0681554", "POPULATION": 102386, "POP_CLASS": 8, "POP_SQMI": 3401.5, "SQMI": 30.1, "CAPITAL": "" }, "geometry": { "type": "Point", "coordinates": [ -121.964618499999972, 38.358220363000044 ] } },
{ "type": "Feature", "properties": { "fid": 641, "OBJECTID": 641, "NAME": "Vallejo", "CLASS": "city", "STATE_ABBR": "CA", "STATE_FIPS": "06", "PLACE_FIPS": "0681666", "POPULATION": 126090, "POP_CLASS": 8, "POP_SQMI": 4112.5, "SQMI": 30.66, "CAPITAL": "" }, "geometry": { "type": "Point", "coordinates": [ -122.250848274999953, 38.102290363000066 ] } },
{ "type": "Feature", "properties": { "fid": 643, "OBJECTID": 643, "NAME": "Victorville", "CLASS": "city", "STATE_ABBR": "CA", "STATE_FIPS": "06", "PLACE_FIPS": "0682590", "POPULATION": 134810, "POP_CLASS": 8, "POP_SQMI": 1821.8, "SQMI": 74.0, "CAPITAL": "" }, "geometry": { "type": "Point", "coordinates": [ -117.330840117999969, 34.514154432000055 ] } },
{ "type": "Feature", "properties": { "fid": 646, "OBJECTID": 646, "NAME": "Visalia", "CLASS": "city", "STATE_ABBR": "CA", "STATE_FIPS": "06", "PLACE_FIPS": "0682954", "POPULATION": 141384, "POP_CLASS": 8, "POP_SQMI": 3725.5, "SQMI": 37.95, "CAPITAL": "" }, "geometry": { "type": "Point", "coordinates": [ -119.299430571999949, 36.335080322000067 ] } },
{ "type": "Feature", "properties": { "fid": 654, "OBJECTID": 654, "NAME": "West Covina", "CLASS": "city", "STATE_ABBR": "CA", "STATE_FIPS": "06", "PLACE_FIPS": "0684200", "POPULATION": 109501, "POP_CLASS": 8, "POP_SQMI": 6809.8, "SQMI": 16.08, "CAPITAL": "" }, "geometry": { "type": "Point", "coordinates": [ -117.939765499999965, 34.068736340000044 ] } },
{ "type": "Feature", "properties": { "fid": 673, "OBJECTID": 673, "NAME": "Arvada", "CLASS": "city", "STATE_ABBR": "CO", "STATE_FIPS": "08", "PLACE_FIPS": "0803455", "POPULATION": 124402, "POP_CLASS": 8, "POP_SQMI": 3143.8, "SQMI": 39.57, "CAPITAL": "" }, "geometry": { "type": "Point", "coordinates": [ -105.108874164999975, 39.823132416000078 ] } },
{ "type": "Feature", "properties": { "fid": 674, "OBJECTID": 674, "NAME": "Aurora", "CLASS": "city", "STATE_ABBR": "CO", "STATE_FIPS": "08", "PLACE_FIPS": "0804000", "POPULATION": 386261, "POP_CLASS": 9, "POP_SQMI": 2403.5, "SQMI": 160.71, "CAPITAL": "" }, "geometry": { "type": "Point", "coordinates": [ -104.78718625, 39.698891651000054 ] } },
{ "type": "Feature", "properties": { "fid": 677, "OBJECTID": 677, "NAME": "Boulder", "CLASS": "city", "STATE_ABBR": "CO", "STATE_FIPS": "08", "PLACE_FIPS": "0807850", "POPULATION": 108250, "POP_CLASS": 8, "POP_SQMI": 3955.1, "SQMI": 27.37, "CAPITAL": "" }, "geometry": { "type": "Point", "coordinates": [ -105.258969566999951, 40.015951322000035 ] } },
{ "type": "Feature", "properties": { "fid": 682, "OBJECTID": 682, "NAME": "Centennial", "CLASS": "city", "STATE_ABBR": "CO", "STATE_FIPS": "08", "PLACE_FIPS": "0812815", "POPULATION": 108418, "POP_CLASS": 8, "POP_SQMI": 3629.7, "SQMI": 29.87, "CAPITAL": "" }, "geometry": { "type": "Point", "coordinates": [ -104.92279474999998, 39.586569872000041 ] } },
{ "type": "Feature", "properties": { "fid": 686, "OBJECTID": 686, "NAME": "Colorado Springs", "CLASS": "city", "STATE_ABBR": "CO", "STATE_FIPS": "08", "PLACE_FIPS": "0816000", "POPULATION": 478961, "POP_CLASS": 9, "POP_SQMI": 2446.7, "SQMI": 195.76, "CAPITAL": "" }, "geometry": { "type": "Point", "coordinates": [ -104.815075502999946, 38.829651349000073 ] } },
{ "type": "Feature", "properties": { "fid": 690, "OBJECTID": 690, "NAME": "Denver", "CLASS": "city", "STATE_ABBR": "CO", "STATE_FIPS": "08", "PLACE_FIPS": "0820000", "POPULATION": 715522, "POP_CLASS": 10, "POP_SQMI": 4624.3, "SQMI": 154.73, "CAPITAL": "State" }, "geometry": { "type": "Point", "coordinates": [ -104.98252075, 39.729371119000064 ] } },
{ "type": "Feature", "properties": { "fid": 699, "OBJECTID": 699, "NAME": "Fort Collins", "CLASS": "city", "STATE_ABBR": "CO", "STATE_FIPS": "08", "PLACE_FIPS": "0827425", "POPULATION": 169810, "POP_CLASS": 8, "POP_SQMI": 2904.2, "SQMI": 58.47, "CAPITAL": "" }, "geometry": { "type": "Point", "coordinates": [ -105.074042320999979, 40.576760410000077 ] } },
{ "type": "Feature", "properties": { "fid": 705, "OBJECTID": 705, "NAME": "Greeley", "CLASS": "city", "STATE_ABBR": "CO", "STATE_FIPS": "08", "PLACE_FIPS": "0832155", "POPULATION": 108795, "POP_CLASS": 8, "POP_SQMI": 2216.2, "SQMI": 49.09, "CAPITAL": "" }, "geometry": { "type": "Point", "coordinates": [ -104.696120112999949, 40.42135882000008 ] } },
{ "type": "Feature", "properties": { "fid": 707, "OBJECTID": 707, "NAME": "Highlands Ranch", "CLASS": "Census Designated Place", "STATE_ABBR": "CO", "STATE_FIPS": "08", "PLACE_FIPS": "0836410", "POPULATION": 103444, "POP_CLASS": 8, "POP_SQMI": 4258.7, "SQMI": 24.29, "CAPITAL": "" }, "geometry": { "type": "Point", "coordinates": [ -104.970778582999969, 39.541932043000031 ] } },
{ "type": "Feature", "properties": { "fid": 711, "OBJECTID": 711, "NAME": "Lakewood", "CLASS": "city", "STATE_ABBR": "CO", "STATE_FIPS": "08", "PLACE_FIPS": "0843000", "POPULATION": 155984, "POP_CLASS": 8, "POP_SQMI": 3493.5, "SQMI": 44.65, "CAPITAL": "" }, "geometry": { "type": "Point", "coordinates": [ -105.089724249999961, 39.704211385000065 ] } },
{ "type": "Feature", "properties": { "fid": 720, "OBJECTID": 720, "NAME": "Pueblo", "CLASS": "city", "STATE_ABBR": "CO", "STATE_FIPS": "08", "PLACE_FIPS": "0862000", "POPULATION": 111876, "POP_CLASS": 8, "POP_SQMI": 1994.9, "SQMI": 56.08, "CAPITAL": "" }, "geometry": { "type": "Point", "coordinates": [ -104.605597637999949, 38.267441703000031 ] } },
{ "type": "Feature", "properties": { "fid": 728, "OBJECTID": 728, "NAME": "Thornton", "CLASS": "city", "STATE_ABBR": "CO", "STATE_FIPS": "08", "PLACE_FIPS": "0877290", "POPULATION": 141867, "POP_CLASS": 8, "POP_SQMI": 3738.3, "SQMI": 37.95, "CAPITAL": "" }, "geometry": { "type": "Point", "coordinates": [ -104.984422644999938, 39.869698494000033 ] } },
{ "type": "Feature", "properties": { "fid": 730, "OBJECTID": 730, "NAME": "Westminster", "CLASS": "city", "STATE_ABBR": "CO", "STATE_FIPS": "08", "PLACE_FIPS": "0883835", "POPULATION": 116317, "POP_CLASS": 8, "POP_SQMI": 3431.2, "SQMI": 33.9, "CAPITAL": "" }, "geometry": { "type": "Point", "coordinates": [ -105.062837164999962, 39.883024712000065 ] } },
{ "type": "Feature", "properties": { "fid": 734, "OBJECTID": 734, "NAME": "Bridgeport", "CLASS": "city", "STATE_ABBR": "CT", "STATE_FIPS": "09", "PLACE_FIPS": "0908000", "POPULATION": 148654, "POP_CLASS": 8, "POP_SQMI": 9142.3, "SQMI": 16.26, "CAPITAL": "" }, "geometry": { "type": "Point", "coordinates": [ -73.19897, 41.193602787000032 ] } },
{ "type": "Feature", "properties": { "fid": 741, "OBJECTID": 741, "NAME": "Hartford", "CLASS": "city", "STATE_ABBR": "CT", "STATE_FIPS": "09", "PLACE_FIPS": "0937000", "POPULATION": 121054, "POP_CLASS": 8, "POP_SQMI": 6702.9, "SQMI": 18.06, "CAPITAL": "State" }, "geometry": { "type": "Point", "coordinates": [ -72.683398432999979, 41.766067274000079 ] } },
{ "type": "Feature", "properties": { "fid": 748, "OBJECTID": 748, "NAME": "New Haven", "CLASS": "city", "STATE_ABBR": "CT", "STATE_FIPS": "09", "PLACE_FIPS": "0952000", "POPULATION": 134023, "POP_CLASS": 8, "POP_SQMI": 7128.9, "SQMI": 18.8, "CAPITAL": "" }, "geometry": { "type": "Point", "coordinates": [ -72.945654119999972, 41.317422370000031 ] } },
{ "type": "Feature", "properties": { "fid": 756, "OBJECTID": 756, "NAME": "Stamford", "CLASS": "city", "STATE_ABBR": "CT", "STATE_FIPS": "09", "PLACE_FIPS": "0973000", "POPULATION": 135470, "POP_CLASS": 8, "POP_SQMI": 3526.0, "SQMI": 38.42, "CAPITAL": "" }, "geometry": { "type": "Point", "coordinates": [ -73.542050418999963, 41.052381667000077 ] } },
{ "type": "Feature", "properties": { "fid": 760, "OBJECTID": 760, "NAME": "Waterbury", "CLASS": "city", "STATE_ABBR": "CT", "STATE_FIPS": "09", "PLACE_FIPS": "0980000", "POPULATION": 114403, "POP_CLASS": 8, "POP_SQMI": 3953.1, "SQMI": 28.94, "CAPITAL": "" }, "geometry": { "type": "Point", "coordinates": [ -73.036133206999978, 41.558239116000038 ] } },
{ "type": "Feature", "properties": { "fid": 776, "OBJECTID": 776, "NAME": "Washington", "CLASS": "city", "STATE_ABBR": "DC", "STATE_FIPS": "11", "PLACE_FIPS": "1150000", "POPULATION": 689545, "POP_CLASS": 10, "POP_SQMI": 11179.4, "SQMI": 61.68, "CAPITAL": "National" }, "geometry": { "type": "Point", "coordinates": [ -77.027644724999959, 38.889268860000072 ] } },
{ "type": "Feature", "properties": { "fid": 785, "OBJECTID": 785, "NAME": "Jurupa Valley", "CLASS": "city", "STATE_ABBR": "CA", "STATE_FIPS": "06", "PLACE_FIPS": "0637692", "POPULATION": 105053, "POP_CLASS": 8, "POP_SQMI": 2405.1, "SQMI": 43.68, "CAPITAL": "" }, "geometry": { "type": "Point", "coordinates": [ -117.470534850999968, 34.001032172000066 ] } },
{ "type": "Feature", "properties": { "fid": 819, "OBJECTID": 819, "NAME": "Brandon", "CLASS": "Census Designated Place", "STATE_ABBR": "FL", "STATE_FIPS": "12", "PLACE_FIPS": "1208150", "POPULATION": 114626, "POP_CLASS": 8, "POP_SQMI": 3275.0, "SQMI": 35.0, "CAPITAL": "" }, "geometry": { "type": "Point", "coordinates": [ -82.299986986999954, 27.936739260000024 ] } },
{ "type": "Feature", "properties": { "fid": 825, "OBJECTID": 825, "NAME": "Cape Coral", "CLASS": "city", "STATE_ABBR": "FL", "STATE_FIPS": "12", "PLACE_FIPS": "1210275", "POPULATION": 194016, "POP_CLASS": 8, "POP_SQMI": 1686.9, "SQMI": 115.01, "CAPITAL": "" }, "geometry": { "type": "Point", "coordinates": [ -81.956561959999988, 26.630616266000061 ] } },
{ "type": "Feature", "properties": { "fid": 830, "OBJECTID": 830, "NAME": "Clearwater", "CLASS": "city", "STATE_ABBR": "FL", "STATE_FIPS": "12", "PLACE_FIPS": "1212875", "POPULATION": 117292, "POP_CLASS": 8, "POP_SQMI": 4404.5, "SQMI": 26.63, "CAPITAL": "" }, "geometry": { "type": "Point", "coordinates": [ -82.798752096999976, 27.966190693000044 ] } },
{ "type": "Feature", "properties": { "fid": 838, "OBJECTID": 838, "NAME": "Coral Springs", "CLASS": "city", "STATE_ABBR": "FL", "STATE_FIPS": "12", "PLACE_FIPS": "1214400", "POPULATION": 134394, "POP_CLASS": 8, "POP_SQMI": 5602.1, "SQMI": 23.99, "CAPITAL": "" }, "geometry": { "type": "Point", "coordinates": [ -80.258877565999967, 26.270405775000029 ] } },
{ "type": "Feature", "properties": { "fid": 846, "OBJECTID": 846, "NAME": "Davie", "CLASS": "town", "STATE_ABBR": "FL", "STATE_FIPS": "12", "PLACE_FIPS": "1216475", "POPULATION": 105691, "POP_CLASS": 8, "POP_SQMI": 2954.7, "SQMI": 35.77, "CAPITAL": "" }, "geometry": { "type": "Point", "coordinates": [ -80.235748162999982, 26.066150988000061 ] } },
{ "type": "Feature", "properties": { "fid": 875, "OBJECTID": 875, "NAME": "Fort Lauderdale", "CLASS": "city", "STATE_ABBR": "FL", "STATE_FIPS": "12", "PLACE_FIPS": "1224000", "POPULATION": 182760, "POP_CLASS": 8, "POP_SQMI": 5229.2, "SQMI": 34.95, "CAPITAL": "" }, "geometry": { "type": "Point", "coordinates": [ -80.150159923999979, 26.135036898000067 ] } },
{ "type": "Feature", "properties": { "fid": 883, "OBJECTID": 883, "NAME": "Gainesville", "CLASS": "city", "STATE_ABBR": "FL", "STATE_FIPS": "12", "PLACE_FIPS": "1225175", "POPULATION": 141085, "POP_CLASS": 8, "POP_SQMI": 2193.1, "SQMI": 64.33, "CAPITAL": "" }, "geometry": { "type": "Point", "coordinates": [ -82.319876842999975, 29.651288456000032 ] } },
{ "type": "Feature", "properties": { "fid": 897, "OBJECTID": 897, "NAME": "Hialeah", "CLASS": "city", "STATE_ABBR": "FL", "STATE_FIPS": "12", "PLACE_FIPS": "1230000", "POPULATION": 223109, "POP_CLASS": 8, "POP_SQMI": 9776.9, "SQMI": 22.82, "CAPITAL": "" }, "geometry": { "type": "Point", "coordinates": [ -80.283169749999956, 25.852926090000039 ] } },
{ "type": "Feature", "properties": { "fid": 903, "OBJECTID": 903, "NAME": "Hollywood", "CLASS": "city", "STATE_ABBR": "FL", "STATE_FIPS": "12", "PLACE_FIPS": "1232000", "POPULATION": 153067, "POP_CLASS": 8, "POP_SQMI": 5504.0, "SQMI": 27.81, "CAPITAL": "" }, "geometry": { "type": "Point", "coordinates": [ -80.183256393999955, 26.017864280000026 ] } },
{ "type": "Feature", "properties": { "fid": 912, "OBJECTID": 912, "NAME": "Jacksonville", "CLASS": "city", "STATE_ABBR": "FL", "STATE_FIPS": "12", "PLACE_FIPS": "1235000", "POPULATION": 949611, "POP_CLASS": 10, "POP_SQMI": 1253.6, "SQMI": 757.48, "CAPITAL": "" }, "geometry": { "type": "Point", "coordinates": [ -81.655654384999934, 30.332172736000075 ] } },
{ "type": "Feature", "properties": { "fid": 929, "OBJECTID": 929, "NAME": "Lakeland", "CLASS": "city", "STATE_ABBR": "FL", "STATE_FIPS": "12", "PLACE_FIPS": "1238250", "POPULATION": 112641, "POP_CLASS": 8, "POP_SQMI": 1498.7, "SQMI": 75.16, "CAPITAL": "" }, "geometry": { "type": "Point", "coordinates": [ -81.954771856999969, 28.056259337000029 ] } },
{ "type": "Feature", "properties": { "fid": 943, "OBJECTID": 943, "NAME": "Lehigh Acres", "CLASS": "Census Designated Place", "STATE_ABBR": "FL", "STATE_FIPS": "12", "PLACE_FIPS": "1239925", "POPULATION": 114287, "POP_CLASS": 8, "POP_SQMI": 1213.1, "SQMI": 94.21, "CAPITAL": "" }, "geometry": { "type": "Point", "coordinates": [ -81.638777545999972, 26.612038230000053 ] } },
{ "type": "Feature", "properties": { "fid": 957, "OBJECTID": 957, "NAME": "Miami", "CLASS": "city", "STATE_ABBR": "FL", "STATE_FIPS": "12", "PLACE_FIPS": "1245000", "POPULATION": 442241, "POP_CLASS": 9, "POP_SQMI": 12203.1, "SQMI": 36.24, "CAPITAL": "" }, "geometry": { "type": "Point", "coordinates": [ -80.220932498999957, 25.760860335000075 ] } },
{ "type": "Feature", "properties": { "fid": 959, "OBJECTID": 959, "NAME": "Miami Gardens", "CLASS": "city", "STATE_ABBR": "FL", "STATE_FIPS": "12", "PLACE_FIPS": "1245060", "POPULATION": 111640, "POP_CLASS": 8, "POP_SQMI": 5875.8, "SQMI": 19.0, "CAPITAL": "" }, "geometry": { "type": "Point", "coordinates": [ -80.242541329999938, 25.94326600900007 ] } },
{ "type": "Feature", "properties": { "fid": 965, "OBJECTID": 965, "NAME": "Miramar", "CLASS": "city", "STATE_ABBR": "FL", "STATE_FIPS": "12", "PLACE_FIPS": "1245975", "POPULATION": 134721, "POP_CLASS": 8, "POP_SQMI": 4334.7, "SQMI": 31.08, "CAPITAL": "" }, "geometry": { "type": "Point", "coordinates": [ -80.300931774999981, 25.985505571000033 ] } },
{ "type": "Feature", "properties": { "fid": 990, "OBJECTID": 990, "NAME": "Orlando", "CLASS": "city", "STATE_ABBR": "FL", "STATE_FIPS": "12", "PLACE_FIPS": "1253000", "POPULATION": 307573, "POP_CLASS": 9, "POP_SQMI": 2587.3, "SQMI": 118.88, "CAPITAL": "" }, "geometry": { "type": "Point", "coordinates": [ -81.372287605999986, 28.53723599500006 ] } },
{ "type": "Feature", "properties": { "fid": 995, "OBJECTID": 995, "NAME": "Palm Bay", "CLASS": "city", "STATE_ABBR": "FL", "STATE_FIPS": "12", "PLACE_FIPS": "1254000", "POPULATION": 119760, "POP_CLASS": 8, "POP_SQMI": 1381.0, "SQMI": 86.72, "CAPITAL": "" }, "geometry": { "type": "Point", "coordinates": [ -80.666746068999942, 27.983804873000054 ] } },
{ "type": "Feature", "properties": { "fid": 1009, "OBJECTID": 1009, "NAME": "Pembroke Pines", "CLASS": "city", "STATE_ABBR": "FL", "STATE_FIPS": "12", "PLACE_FIPS": "1255775", "POPULATION": 171178, "POP_CLASS": 8, "POP_SQMI": 4924.6, "SQMI": 34.76, "CAPITAL": "" }, "geometry": { "type": "Point", "coordinates": [ -80.280715606999934, 26.011454868000044 ] } },
{ "type": "Feature", "properties": { "fid": 1019, "OBJECTID": 1019, "NAME": "Pompano Beach", "CLASS": "city", "STATE_ABBR": "FL", "STATE_FIPS": "12", "PLACE_FIPS": "1258050", "POPULATION": 112046, "POP_CLASS": 8, "POP_SQMI": 4592.0, "SQMI": 24.4, "CAPITAL": "" }, "geometry": { "type": "Point", "coordinates": [ -80.133189008999977, 26.243001909000043 ] } },
{ "type": "Feature", "properties": { "fid": 1023, "OBJECTID": 1023, "NAME": "Port St. Lucie", "CLASS": "city", "STATE_ABBR": "FL", "STATE_FIPS": "12", "PLACE_FIPS": "1258715", "POPULATION": 204851, "POP_CLASS": 8, "POP_SQMI": 1699.9, "SQMI": 120.51, "CAPITAL": "" }, "geometry": { "type": "Point", "coordinates": [ -80.432216249999954, 27.255986471000028 ] } },
{ "type": "Feature", "properties": { "fid": 1027, "OBJECTID": 1027, "NAME": "Riverview", "CLASS": "Census Designated Place", "STATE_ABBR": "FL", "STATE_FIPS": "12", "PLACE_FIPS": "1260950", "POPULATION": 107396, "POP_CLASS": 8, "POP_SQMI": 2245.8, "SQMI": 47.82, "CAPITAL": "" }, "geometry": { "type": "Point", "coordinates": [ -82.32657319499998, 27.871245590000058 ] } },
{ "type": "Feature", "properties": { "fid": 1035, "OBJECTID": 1035, "NAME": "St. Petersburg", "CLASS": "city", "STATE_ABBR": "FL", "STATE_FIPS": "12", "PLACE_FIPS": "1263000", "POPULATION": 258308, "POP_CLASS": 9, "POP_SQMI": 4026.0, "SQMI": 64.16, "CAPITAL": "" }, "geometry": { "type": "Point", "coordinates": [ -82.675223498999969, 27.757094571000039 ] } },
{ "type": "Feature", "properties": { "fid": 1051, "OBJECTID": 1051, "NAME": "Spring Hill", "CLASS": "Census Designated Place", "STATE_ABBR": "FL", "STATE_FIPS": "12", "PLACE_FIPS": "1268350", "POPULATION": 113568, "POP_CLASS": 8, "POP_SQMI": 1822.9, "SQMI": 62.3, "CAPITAL": "" }, "geometry": { "type": "Point", "coordinates": [ -82.627076349999982, 28.457838661000039 ] } },
{ "type": "Feature", "properties": { "fid": 1058, "OBJECTID": 1058, "NAME": "Tallahassee", "CLASS": "city", "STATE_ABBR": "FL", "STATE_FIPS": "12", "PLACE_FIPS": "1270600", "POPULATION": 196169, "POP_CLASS": 8, "POP_SQMI": 1890.2, "SQMI": 103.78, "CAPITAL": "State" }, "geometry": { "type": "Point", "coordinates": [ -84.277568901999985, 30.434296139000026 ] } },
{ "type": "Feature", "properties": { "fid": 1061, "OBJECTID": 1061, "NAME": "Tampa", "CLASS": "city", "STATE_ABBR": "FL", "STATE_FIPS": "12", "PLACE_FIPS": "1271000", "POPULATION": 384959, "POP_CLASS": 9, "POP_SQMI": 3288.8, "SQMI": 117.05, "CAPITAL": "" }, "geometry": { "type": "Point", "coordinates": [ -82.455712448999975, 27.949506156000041 ] } },
{ "type": "Feature", "properties": { "fid": 1093, "OBJECTID": 1093, "NAME": "West Palm Beach", "CLASS": "city", "STATE_ABBR": "FL", "STATE_FIPS": "12", "PLACE_FIPS": "1276600", "POPULATION": 117415, "POP_CLASS": 8, "POP_SQMI": 2069.7, "SQMI": 56.73, "CAPITAL": "" }, "geometry": { "type": "Point", "coordinates": [ -80.054509242999984, 26.71551088800004 ] } },
{ "type": "Feature", "properties": { "fid": 1110, "OBJECTID": 1110, "NAME": "Athens-Clarke County unified government (balance)", "CLASS": "unknown", "STATE_ABBR": "GA", "STATE_FIPS": "13", "PLACE_FIPS": "1303440", "POPULATION": 127315, "POP_CLASS": 8, "POP_SQMI": 1078.0, "SQMI": 118.1, "CAPITAL": "" }, "geometry": { "type": "Point", "coordinates": [ -83.36893379199995, 33.95082291500006 ] } },
{ "type": "Feature", "properties": { "fid": 1111, "OBJECTID": 1111, "NAME": "Atlanta", "CLASS": "city", "STATE_ABBR": "GA", "STATE_FIPS": "13", "PLACE_FIPS": "1304000", "POPULATION": 498715, "POP_CLASS": 9, "POP_SQMI": 3658.7, "SQMI": 136.31, "CAPITAL": "State" }, "geometry": { "type": "Point", "coordinates": [ -84.394919155999958, 33.748638591000031 ] } },
{ "type": "Feature", "properties": { "fid": 1112, "OBJECTID": 1112, "NAME": "Augusta-Richmond County consolidated government (balance)", "CLASS": "unknown", "STATE_ABBR": "GA", "STATE_FIPS": "13", "PLACE_FIPS": "1304204", "POPULATION": 202081, "POP_CLASS": 8, "POP_SQMI": 659.4, "SQMI": 306.45, "CAPITAL": "" }, "geometry": { "type": "Point", "coordinates": [ -81.979564662999962, 33.475340906000042 ] } },
{ "type": "Feature", "properties": { "fid": 1124, "OBJECTID": 1124, "NAME": "Columbus", "CLASS": "city", "STATE_ABBR": "GA", "STATE_FIPS": "13", "PLACE_FIPS": "1319000", "POPULATION": 206922, "POP_CLASS": 8, "POP_SQMI": 936.3, "SQMI": 221.01, "CAPITAL": "" }, "geometry": { "type": "Point", "coordinates": [ -84.977070071999947, 32.46550370600005 ] } },
{ "type": "Feature", "properties": { "fid": 1180, "OBJECTID": 1180, "NAME": "Sandy Springs", "CLASS": "city", "STATE_ABBR": "GA", "STATE_FIPS": "13", "PLACE_FIPS": "1368516", "POPULATION": 108080, "POP_CLASS": 8, "POP_SQMI": 2805.8, "SQMI": 38.52, "CAPITAL": "" }, "geometry": { "type": "Point", "coordinates": [ -84.370318980999969, 33.93666851200004 ] } },
{ "type": "Feature", "properties": { "fid": 1181, "OBJECTID": 1181, "NAME": "Savannah", "CLASS": "city", "STATE_ABBR": "GA", "STATE_FIPS": "13", "PLACE_FIPS": "1369000", "POPULATION": 147780, "POP_CLASS": 8, "POP_SQMI": 1376.9, "SQMI": 107.33, "CAPITAL": "" }, "geometry": { "type": "Point", "coordinates": [ -81.091221192999967, 32.079344254000034 ] } },
{ "type": "Feature", "properties": { "fid": 1224, "OBJECTID": 1224, "NAME": "Urban Honolulu", "CLASS": "Census Designated Place", "STATE_ABBR": "HI", "STATE_FIPS": "15", "PLACE_FIPS": "1571550", "POPULATION": 350964, "POP_CLASS": 9, "POP_SQMI": 5767.7, "SQMI": 60.85, "CAPITAL": "State" }, "geometry": { "type": "Point", "coordinates": [ -157.842723409999962, 21.330784386000062 ] } },
{ "type": "Feature", "properties": { "fid": 1233, "OBJECTID": 1233, "NAME": "Boise City", "CLASS": "city", "STATE_ABBR": "ID", "STATE_FIPS": "16", "PLACE_FIPS": "1608830", "POPULATION": 235684, "POP_CLASS": 8, "POP_SQMI": 2772.8, "SQMI": 85.0, "CAPITAL": "State" }, "geometry": { "type": "Point", "coordinates": [ -116.230110211999943, 43.599014809000039 ] } },
{ "type": "Feature", "properties": { "fid": 1245, "OBJECTID": 1245, "NAME": "Meridian", "CLASS": "city", "STATE_ABBR": "ID", "STATE_FIPS": "16", "PLACE_FIPS": "1652120", "POPULATION": 117635, "POP_CLASS": 8, "POP_SQMI": 3346.7, "SQMI": 35.15, "CAPITAL": "" }, "geometry": { "type": "Point", "coordinates": [ -116.396851761, 43.617670134000036 ] } },
{ "type": "Feature", "properties": { "fid": 1248, "OBJECTID": 1248, "NAME": "Nampa", "CLASS": "city", "STATE_ABBR": "ID", "STATE_FIPS": "16", "PLACE_FIPS": "1656260", "POPULATION": 100200, "POP_CLASS": 8, "POP_SQMI": 2979.5, "SQMI": 33.63, "CAPITAL": "" }, "geometry": { "type": "Point", "coordinates": [ -116.562656716, 43.58248586600007 ] } },
{ "type": "Feature", "properties": { "fid": 1294, "OBJECTID": 1294, "NAME": "Macon-Bibb County", "CLASS": "unknown", "STATE_ABBR": "GA", "STATE_FIPS": "13", "PLACE_FIPS": "1349008", "POPULATION": 157346, "POP_CLASS": 8, "POP_SQMI": 617.3, "SQMI": 254.91, "CAPITAL": "" }, "geometry": { "type": "Point", "coordinates": [ -83.697427705999985, 32.806504239000049 ] } },
{ "type": "Feature", "properties": { "fid": 1300, "OBJECTID": 1300, "NAME": "South Fulton", "CLASS": "city", "STATE_ABBR": "GA", "STATE_FIPS": "13", "PLACE_FIPS": "1372122", "POPULATION": 107436, "POP_CLASS": 8, "POP_SQMI": 1245.6, "SQMI": 86.25, "CAPITAL": "" }, "geometry": { "type": "Point", "coordinates": [ -84.591817, 33.667045233000067 ] } },
{ "type": "Feature", "properties": { "fid": 1314, "OBJECTID": 1314, "NAME": "Aurora", "CLASS": "city", "STATE_ABBR": "IL", "STATE_FIPS": "17", "PLACE_FIPS": "1703012", "POPULATION": 180542, "POP_CLASS": 8, "POP_SQMI": 3927.4, "SQMI": 45.97, "CAPITAL": "" }, "geometry": { "type": "Point", "coordinates": [ -88.306742499999984, 41.759164499000065 ] } },
{ "type": "Feature", "properties": { "fid": 1348, "OBJECTID": 1348, "NAME": "Chicago", "CLASS": "city", "STATE_ABBR": "IL", "STATE_FIPS": "17", "PLACE_FIPS": "1714000", "POPULATION": 2746388, "POP_CLASS": 10, "POP_SQMI": 11893.2, "SQMI": 230.92, "CAPITAL": "" }, "geometry": { "type": "Point", "coordinates": [ -87.647146386999964, 41.756488061000027 ] } },
{ "type": "Feature", "properties": { "fid": 1371, "OBJECTID": 1371, "NAME": "Elgin", "CLASS": "city", "STATE_ABBR": "IL", "STATE_FIPS": "17", "PLACE_FIPS": "1723074", "POPULATION": 114797, "POP_CLASS": 8, "POP_SQMI": 2974.0, "SQMI": 38.6, "CAPITAL": "" }, "geometry": { "type": "Point", "coordinates": [ -88.280879, 42.039077347000045 ] } },
{ "type": "Feature", "properties": { "fid": 1406, "OBJECTID": 1406, "NAME": "Joliet", "CLASS": "city", "STATE_ABBR": "IL", "STATE_FIPS": "17", "PLACE_FIPS": "1738570", "POPULATION": 150362, "POP_CLASS": 8, "POP_SQMI": 2304.0, "SQMI": 65.26, "CAPITAL": "" }, "geometry": { "type": "Point", "coordinates": [ -88.082219641999984, 41.524433413000054 ] } },
{ "type": "Feature", "properties": { "fid": 1446, "OBJECTID": 1446, "NAME": "Naperville", "CLASS": "city", "STATE_ABBR": "IL", "STATE_FIPS": "17", "PLACE_FIPS": "1751622", "POPULATION": 149540, "POP_CLASS": 8, "POP_SQMI": 3770.5, "SQMI": 39.66, "CAPITAL": "" }, "geometry": { "type": "Point", "coordinates": [ -88.152701247999971, 41.772370033000072 ] } },
{ "type": "Feature", "properties": { "fid": 1468, "OBJECTID": 1468, "NAME": "Peoria", "CLASS": "city", "STATE_ABBR": "IL", "STATE_FIPS": "17", "PLACE_FIPS": "1759000", "POPULATION": 113150, "POP_CLASS": 8, "POP_SQMI": 2246.4, "SQMI": 50.37, "CAPITAL": "" }, "geometry": { "type": "Point", "coordinates": [ -89.590060960999949, 40.691500118000079 ] } },
{ "type": "Feature", "properties": { "fid": 1480, "OBJECTID": 1480, "NAME": "Rockford", "CLASS": "city", "STATE_ABBR": "IL", "STATE_FIPS": "17", "PLACE_FIPS": "1765000", "POPULATION": 148655, "POP_CLASS": 8, "POP_SQMI": 2267.5, "SQMI": 65.56, "CAPITAL": "" }, "geometry": { "type": "Point", "coordinates": [ -89.061557228999959, 42.262934069000039 ] } },
{ "type": "Feature", "properties": { "fid": 1497, "OBJECTID": 1497, "NAME": "Springfield", "CLASS": "city", "STATE_ABBR": "IL", "STATE_FIPS": "17", "PLACE_FIPS": "1772000", "POPULATION": 114394, "POP_CLASS": 8, "POP_SQMI": 1696.2, "SQMI": 67.44, "CAPITAL": "State" }, "geometry": { "type": "Point", "coordinates": [ -89.648364320999974, 39.799679056000059 ] } },
{ "type": "Feature", "properties": { "fid": 1548, "OBJECTID": 1548, "NAME": "Evansville", "CLASS": "city", "STATE_ABBR": "IN", "STATE_FIPS": "18", "PLACE_FIPS": "1822000", "POPULATION": 117298, "POP_CLASS": 8, "POP_SQMI": 2451.4, "SQMI": 47.85, "CAPITAL": "" }, "geometry": { "type": "Point", "coordinates": [ -87.55789991599994, 37.975770021000073 ] } },
{ "type": "Feature", "properties": { "fid": 1550, "OBJECTID": 1550, "NAME": "Fort Wayne", "CLASS": "city", "STATE_ABBR": "IN", "STATE_FIPS": "18", "PLACE_FIPS": "1825000", "POPULATION": 263886, "POP_CLASS": 9, "POP_SQMI": 2378.2, "SQMI": 110.96, "CAPITAL": "" }, "geometry": { "type": "Point", "coordinates": [ -85.143621283999948, 41.088504255000032 ] } },
{ "type": "Feature", "properties": { "fid": 1565, "OBJECTID": 1565, "NAME": "Indianapolis city (balance)", "CLASS": "unknown", "STATE_ABBR": "IN", "STATE_FIPS": "18", "PLACE_FIPS": "1836003", "POPULATION": 887642, "POP_CLASS": 10, "POP_SQMI": 2412.5, "SQMI": 367.93, "CAPITAL": "State" }, "geometry": { "type": "Point", "coordinates": [ -86.146340941999938, 39.777099150000026 ] } },
{ "type": "Feature", "properties": { "fid": 1596, "OBJECTID": 1596, "NAME": "South Bend", "CLASS": "city", "STATE_ABBR": "IN", "STATE_FIPS": "18", "PLACE_FIPS": "1871000", "POPULATION": 103453, "POP_CLASS": 8, "POP_SQMI": 2439.9, "SQMI": 42.4, "CAPITAL": "" }, "geometry": { "type": "Point", "coordinates": [ -86.269037026999968, 41.677105095000059 ] } },
{ "type": "Feature", "properties": { "fid": 1615, "OBJECTID": 1615, "NAME": "Cedar Rapids", "CLASS": "city", "STATE_ABBR": "IA", "STATE_FIPS": "19", "PLACE_FIPS": "1912000", "POPULATION": 137710, "POP_CLASS": 8, "POP_SQMI": 1879.0, "SQMI": 73.29, "CAPITAL": "" }, "geometry": { "type": "Point", "coordinates": [ -91.678197981999972, 41.966786686000034 ] } },
{ "type": "Feature", "properties": { "fid": 1620, "OBJECTID": 1620, "NAME": "Davenport", "CLASS": "city", "STATE_ABBR": "IA", "STATE_FIPS": "19", "PLACE_FIPS": "1919000", "POPULATION": 101724, "POP_CLASS": 8, "POP_SQMI": 1543.1, "SQMI": 65.92, "CAPITAL": "" }, "geometry": { "type": "Point", "coordinates": [ -90.575459785999954, 41.537795656000071 ] } },
{ "type": "Feature", "properties": { "fid": 1621, "OBJECTID": 1621, "NAME": "Des Moines", "CLASS": "city", "STATE_ABBR": "IA", "STATE_FIPS": "19", "PLACE_FIPS": "1921000", "POPULATION": 214133, "POP_CLASS": 8, "POP_SQMI": 2362.5, "SQMI": 90.64, "CAPITAL": "State" }, "geometry": { "type": "Point", "coordinates": [ -93.615750639999987, 41.588569490000054 ] } },
{ "type": "Feature", "properties": { "fid": 1660, "OBJECTID": 1660, "NAME": "Kansas City", "CLASS": "city", "STATE_ABBR": "KS", "STATE_FIPS": "20", "PLACE_FIPS": "2036000", "POPULATION": 156607, "POP_CLASS": 8, "POP_SQMI": 1220.6, "SQMI": 128.3, "CAPITAL": "" }, "geometry": { "type": "Point", "coordinates": [ -94.62878391199996, 39.111802309000041 ] } },
{ "type": "Feature", "properties": { "fid": 1671, "OBJECTID": 1671, "NAME": "Olathe", "CLASS": "city", "STATE_ABBR": "KS", "STATE_FIPS": "20", "PLACE_FIPS": "2052575", "POPULATION": 141290, "POP_CLASS": 8, "POP_SQMI": 2255.2, "SQMI": 62.65, "CAPITAL": "" }, "geometry": { "type": "Point", "coordinates": [ -94.818750456999965, 38.884354862000066 ] } },
{ "type": "Feature", "properties": { "fid": 1673, "OBJECTID": 1673, "NAME": "Overland Park", "CLASS": "city", "STATE_ABBR": "KS", "STATE_FIPS": "20", "PLACE_FIPS": "2053775", "POPULATION": 197238, "POP_CLASS": 8, "POP_SQMI": 2607.6, "SQMI": 75.64, "CAPITAL": "" }, "geometry": { "type": "Point", "coordinates": [ -94.672042456999975, 38.986168423000038 ] } },
{ "type": "Feature", "properties": { "fid": 1679, "OBJECTID": 1679, "NAME": "Topeka", "CLASS": "city", "STATE_ABBR": "KS", "STATE_FIPS": "20", "PLACE_FIPS": "2071000", "POPULATION": 126587, "POP_CLASS": 8, "POP_SQMI": 2017.0, "SQMI": 62.76, "CAPITAL": "State" }, "geometry": { "type": "Point", "coordinates": [ -95.696584126999937, 39.038262073000055 ] } },
{ "type": "Feature", "properties": { "fid": 1680, "OBJECTID": 1680, "NAME": "Wichita", "CLASS": "city", "STATE_ABBR": "KS", "STATE_FIPS": "20", "PLACE_FIPS": "2079000", "POPULATION": 397532, "POP_CLASS": 9, "POP_SQMI": 2387.3, "SQMI": 166.52, "CAPITAL": "" }, "geometry": { "type": "Point", "coordinates": [ -97.342267255999957, 37.691344486000048 ] } },
{ "type": "Feature", "properties": { "fid": 1703, "OBJECTID": 1703, "NAME": "Lexington-Fayette", "CLASS": "unknown", "STATE_ABBR": "KY", "STATE_FIPS": "21", "PLACE_FIPS": "2146027", "POPULATION": 322570, "POP_CLASS": 9, "POP_SQMI": 1129.7, "SQMI": 285.54, "CAPITAL": "" }, "geometry": { "type": "Point", "coordinates": [ -84.498174995999989, 38.049409193000031 ] } },
{ "type": "Feature", "properties": { "fid": 1704, "OBJECTID": 1704, "NAME": "Louisville/Jefferson County metro government (balance)", "CLASS": "unknown", "STATE_ABBR": "KY", "STATE_FIPS": "21", "PLACE_FIPS": "2148006", "POPULATION": 386884, "POP_CLASS": 9, "POP_SQMI": 1406.1, "SQMI": 275.14, "CAPITAL": "" }, "geometry": { "type": "Point", "coordinates": [ -85.676006499999971, 38.131434184000057 ] } },
{ "type": "Feature", "properties": { "fid": 1726, "OBJECTID": 1726, "NAME": "Baton Rouge", "CLASS": "city", "STATE_ABBR": "LA", "STATE_FIPS": "22", "PLACE_FIPS": "2205000", "POPULATION": 227470, "POP_CLASS": 8, "POP_SQMI": 2569.7, "SQMI": 88.52, "CAPITAL": "State" }, "geometry": { "type": "Point", "coordinates": [ -91.184349862999966, 30.441053274000069 ] } },
{ "type": "Feature", "properties": { "fid": 1749, "OBJECTID": 1749, "NAME": "Lafayette", "CLASS": "city", "STATE_ABBR": "LA", "STATE_FIPS": "22", "PLACE_FIPS": "2240735", "POPULATION": 121374, "POP_CLASS": 8, "POP_SQMI": 2171.3, "SQMI": 55.9, "CAPITAL": "" }, "geometry": { "type": "Point", "coordinates": [ -92.030802532999985, 30.212393312000074 ] } },
{ "type": "Feature", "properties": { "fid": 1755, "OBJECTID": 1755, "NAME": "Metairie", "CLASS": "Census Designated Place", "STATE_ABBR": "LA", "STATE_FIPS": "22", "PLACE_FIPS": "2250115", "POPULATION": 143507, "POP_CLASS": 8, "POP_SQMI": 6159.1, "SQMI": 23.3, "CAPITAL": "" }, "geometry": { "type": "Point", "coordinates": [ -90.131961908999983, 29.984156980000023 ] } },
{ "type": "Feature", "properties": { "fid": 1762, "OBJECTID": 1762, "NAME": "New Orleans", "CLASS": "city", "STATE_ABBR": "LA", "STATE_FIPS": "22", "PLACE_FIPS": "2255000", "POPULATION": 383997, "POP_CLASS": 9, "POP_SQMI": 2094.8, "SQMI": 183.31, "CAPITAL": "" }, "geometry": { "type": "Point", "coordinates": [ -90.075212417999978, 29.953202926000074 ] } },
{ "type": "Feature", "properties": { "fid": 1770, "OBJECTID": 1770, "NAME": "Shreveport", "CLASS": "city", "STATE_ABBR": "LA", "STATE_FIPS": "22", "PLACE_FIPS": "2270000", "POPULATION": 187593, "POP_CLASS": 8, "POP_SQMI": 1520.8, "SQMI": 123.35, "CAPITAL": "" }, "geometry": { "type": "Point", "coordinates": [ -93.749635496999986, 32.510866013000054 ] } },
{ "type": "Feature", "properties": { "fid": 1799, "OBJECTID": 1799, "NAME": "Louisville", "CLASS": "city", "STATE_ABBR": "KY", "STATE_FIPS": "21", "PLACE_FIPS": "2148000", "POPULATION": 246161, "POP_CLASS": 8, "POP_SQMI": 3712.8, "SQMI": 66.3, "CAPITAL": "" }, "geometry": { "type": "Point", "coordinates": [ -85.765442007, 38.25427867500008 ] } },
{ "type": "Feature", "properties": { "fid": 1824, "OBJECTID": 1824, "NAME": "Baltimore", "CLASS": "city", "STATE_ABBR": "MD", "STATE_FIPS": "24", "PLACE_FIPS": "2404000", "POPULATION": 585708, "POP_CLASS": 10, "POP_SQMI": 7200.7, "SQMI": 81.34, "CAPITAL": "" }, "geometry": { "type": "Point", "coordinates": [ -76.607506287999968, 39.290172149000057 ] } },
{ "type": "Feature", "properties": { "fid": 1847, "OBJECTID": 1847, "NAME": "Columbia", "CLASS": "Census Designated Place", "STATE_ABBR": "MD", "STATE_FIPS": "24", "PLACE_FIPS": "2419125", "POPULATION": 104681, "POP_CLASS": 8, "POP_SQMI": 3252.0, "SQMI": 32.19, "CAPITAL": "" }, "geometry": { "type": "Point", "coordinates": [ -76.85901137899998, 39.200453316000051 ] } },
{ "type": "Feature", "properties": { "fid": 1945, "OBJECTID": 1945, "NAME": "Boston", "CLASS": "city", "STATE_ABBR": "MA", "STATE_FIPS": "25", "PLACE_FIPS": "2507000", "POPULATION": 675647, "POP_CLASS": 10, "POP_SQMI": 13828.2, "SQMI": 48.86, "CAPITAL": "State" }, "geometry": { "type": "Point", "coordinates": [ -71.05671289299994, 42.359593275000066 ] } },
{ "type": "Feature", "properties": { "fid": 1947, "OBJECTID": 1947, "NAME": "Brockton", "CLASS": "city", "STATE_ABBR": "MA", "STATE_FIPS": "25", "PLACE_FIPS": "2509000", "POPULATION": 105643, "POP_CLASS": 8, "POP_SQMI": 4909.1, "SQMI": 21.52, "CAPITAL": "" }, "geometry": { "type": "Point", "coordinates": [ -71.024166478999973, 42.082070934000058 ] } },
{ "type": "Feature", "properties": { "fid": 1950, "OBJECTID": 1950, "NAME": "Cambridge", "CLASS": "city", "STATE_ABBR": "MA", "STATE_FIPS": "25", "PLACE_FIPS": "2511000", "POPULATION": 118403, "POP_CLASS": 8, "POP_SQMI": 17751.6, "SQMI": 6.67, "CAPITAL": "" }, "geometry": { "type": "Point", "coordinates": [ -71.105686144999936, 42.368368932000067 ] } },
{ "type": "Feature", "properties": { "fid": 1972, "OBJECTID": 1972, "NAME": "Lowell", "CLASS": "city", "STATE_ABBR": "MA", "STATE_FIPS": "25", "PLACE_FIPS": "2537000", "POPULATION": 115554, "POP_CLASS": 8, "POP_SQMI": 7952.8, "SQMI": 14.53, "CAPITAL": "" }, "geometry": { "type": "Point", "coordinates": [ -71.321714661999977, 42.63887326400004 ] } },
{ "type": "Feature", "properties": { "fid": 1973, "OBJECTID": 1973, "NAME": "Lynn", "CLASS": "city", "STATE_ABBR": "MA", "STATE_FIPS": "25", "PLACE_FIPS": "2537490", "POPULATION": 101253, "POP_CLASS": 8, "POP_SQMI": 8819.9, "SQMI": 11.48, "CAPITAL": "" }, "geometry": { "type": "Point", "coordinates": [ -70.966257884999948, 42.478373570000031 ] } },
{ "type": "Feature", "properties": { "fid": 1984, "OBJECTID": 1984, "NAME": "New Bedford", "CLASS": "city", "STATE_ABBR": "MA", "STATE_FIPS": "25", "PLACE_FIPS": "2545000", "POPULATION": 101079, "POP_CLASS": 8, "POP_SQMI": 4996.5, "SQMI": 20.23, "CAPITAL": "" }, "geometry": { "type": "Point", "coordinates": [ -70.930832262999957, 41.636743763000027 ] } },
{ "type": "Feature", "properties": { "fid": 1993, "OBJECTID": 1993, "NAME": "Quincy", "CLASS": "city", "STATE_ABBR": "MA", "STATE_FIPS": "25", "PLACE_FIPS": "2555745", "POPULATION": 101636, "POP_CLASS": 8, "POP_SQMI": 6093.3, "SQMI": 16.68, "CAPITAL": "" }, "geometry": { "type": "Point", "coordinates": [ -71.021109856999942, 42.249488052000061 ] } },
{ "type": "Feature", "properties": { "fid": 2002, "OBJECTID": 2002, "NAME": "Springfield", "CLASS": "city", "STATE_ABBR": "MA", "STATE_FIPS": "25", "PLACE_FIPS": "2567000", "POPULATION": 155929, "POP_CLASS": 8, "POP_SQMI": 4713.7, "SQMI": 33.08, "CAPITAL": "" }, "geometry": { "type": "Point", "coordinates": [ -72.584353134999958, 42.10157481400006 ] } },
{ "type": "Feature", "properties": { "fid": 2018, "OBJECTID": 2018, "NAME": "Worcester", "CLASS": "city", "STATE_ABBR": "MA", "STATE_FIPS": "25", "PLACE_FIPS": "2582000", "POPULATION": 206518, "POP_CLASS": 8, "POP_SQMI": 5371.1, "SQMI": 38.45, "CAPITAL": "" }, "geometry": { "type": "Point", "coordinates": [ -71.807932850999975, 42.270526959000051 ] } },
{ "type": "Feature", "properties": { "fid": 2023, "OBJECTID": 2023, "NAME": "Ann Arbor", "CLASS": "city", "STATE_ABBR": "MI", "STATE_FIPS": "26", "PLACE_FIPS": "2603000", "POPULATION": 123851, "POP_CLASS": 8, "POP_SQMI": 4260.4, "SQMI": 29.07, "CAPITAL": "" }, "geometry": { "type": "Point", "coordinates": [ -83.730805108999959, 42.275980530000027 ] } },
{ "type": "Feature", "properties": { "fid": 2037, "OBJECTID": 2037, "NAME": "Dearborn", "CLASS": "city", "STATE_ABBR": "MI", "STATE_FIPS": "26", "PLACE_FIPS": "2621000", "POPULATION": 109976, "POP_CLASS": 8, "POP_SQMI": 4499.8, "SQMI": 24.44, "CAPITAL": "" }, "geometry": { "type": "Point", "coordinates": [ -83.173812506, 42.320769471000062 ] } },
{ "type": "Feature", "properties": { "fid": 2039, "OBJECTID": 2039, "NAME": "Detroit", "CLASS": "city", "STATE_ABBR": "MI", "STATE_FIPS": "26", "PLACE_FIPS": "2622000", "POPULATION": 639111, "POP_CLASS": 10, "POP_SQMI": 4600.2, "SQMI": 138.93, "CAPITAL": "" }, "geometry": { "type": "Point", "coordinates": [ -83.065568970999948, 42.331993813000054 ] } },
{ "type": "Feature", "properties": { "fid": 2053, "OBJECTID": 2053, "NAME": "Grand Rapids", "CLASS": "city", "STATE_ABBR": "MI", "STATE_FIPS": "26", "PLACE_FIPS": "2634000", "POPULATION": 198917, "POP_CLASS": 8, "POP_SQMI": 4359.3, "SQMI": 45.63, "CAPITAL": "" }, "geometry": { "type": "Point", "coordinates": [ -85.660089, 42.969175085000074 ] } },
{ "type": "Feature", "properties": { "fid": 2070, "OBJECTID": 2070, "NAME": "Lansing", "CLASS": "city", "STATE_ABBR": "MI", "STATE_FIPS": "26", "PLACE_FIPS": "2646000", "POPULATION": 112644, "POP_CLASS": 8, "POP_SQMI": 2831.7, "SQMI": 39.78, "CAPITAL": "State" }, "geometry": { "type": "Point", "coordinates": [ -84.556714301999989, 42.716685010000049 ] } },
{ "type": "Feature", "properties": { "fid": 2105, "OBJECTID": 2105, "NAME": "Sterling Heights", "CLASS": "city", "STATE_ABBR": "MI", "STATE_FIPS": "26", "PLACE_FIPS": "2676460", "POPULATION": 134346, "POP_CLASS": 8, "POP_SQMI": 3658.7, "SQMI": 36.72, "CAPITAL": "" }, "geometry": { "type": "Point", "coordinates": [ -83.030367918999957, 42.580978124000069 ] } },
{ "type": "Feature", "properties": { "fid": 2112, "OBJECTID": 2112, "NAME": "Warren", "CLASS": "city", "STATE_ABBR": "MI", "STATE_FIPS": "26", "PLACE_FIPS": "2684000", "POPULATION": 139387, "POP_CLASS": 8, "POP_SQMI": 4048.4, "SQMI": 34.43, "CAPITAL": "" }, "geometry": { "type": "Point", "coordinates": [ -83.025062973, 42.508516218000068 ] } },
{ "type": "Feature", "properties": { "fid": 2172, "OBJECTID": 2172, "NAME": "Minneapolis", "CLASS": "city", "STATE_ABBR": "MN", "STATE_FIPS": "27", "PLACE_FIPS": "2743000", "POPULATION": 429954, "POP_CLASS": 9, "POP_SQMI": 7476.2, "SQMI": 57.51, "CAPITAL": "" }, "geometry": { "type": "Point", "coordinates": [ -93.267834477999941, 44.963518803000056 ] } },
{ "type": "Feature", "properties": { "fid": 2193, "OBJECTID": 2193, "NAME": "Rochester", "CLASS": "city", "STATE_ABBR": "MN", "STATE_FIPS": "27", "PLACE_FIPS": "2754880", "POPULATION": 121395, "POP_CLASS": 8, "POP_SQMI": 2175.9, "SQMI": 55.79, "CAPITAL": "" }, "geometry": { "type": "Point", "coordinates": [ -92.477999391999958, 44.015592905000062 ] } },
{ "type": "Feature", "properties": { "fid": 2199, "OBJECTID": 2199, "NAME": "St. Paul", "CLASS": "city", "STATE_ABBR": "MN", "STATE_FIPS": "27", "PLACE_FIPS": "2758000", "POPULATION": 311527, "POP_CLASS": 9, "POP_SQMI": 5553.1, "SQMI": 56.1, "CAPITAL": "State" }, "geometry": { "type": "Point", "coordinates": [ -93.106035499999962, 44.955807647000029 ] } },
{ "type": "Feature", "properties": { "fid": 2236, "OBJECTID": 2236, "NAME": "Jackson", "CLASS": "city", "STATE_ABBR": "MS", "STATE_FIPS": "28", "PLACE_FIPS": "2836000", "POPULATION": 153701, "POP_CLASS": 8, "POP_SQMI": 1350.0, "SQMI": 113.85, "CAPITAL": "State" }, "geometry": { "type": "Point", "coordinates": [ -90.179438570999935, 32.296228004000056 ] } },
{ "type": "Feature", "properties": { "fid": 2271, "OBJECTID": 2271, "NAME": "Columbia", "CLASS": "city", "STATE_ABBR": "MO", "STATE_FIPS": "29", "PLACE_FIPS": "2915670", "POPULATION": 126254, "POP_CLASS": 8, "POP_SQMI": 1889.7, "SQMI": 66.81, "CAPITAL": "" }, "geometry": { "type": "Point", "coordinates": [ -92.327717402999951, 38.947111289000077 ] } },
{ "type": "Feature", "properties": { "fid": 2324, "OBJECTID": 2324, "NAME": "Independence", "CLASS": "city", "STATE_ABBR": "MO", "STATE_FIPS": "29", "PLACE_FIPS": "2935000", "POPULATION": 123011, "POP_CLASS": 8, "POP_SQMI": 1568.2, "SQMI": 78.44, "CAPITAL": "" }, "geometry": { "type": "Point", "coordinates": [ -94.414747360999968, 39.091366581000045 ] } },
{ "type": "Feature", "properties": { "fid": 2329, "OBJECTID": 2329, "NAME": "Kansas City", "CLASS": "city", "STATE_ABBR": "MO", "STATE_FIPS": "29", "PLACE_FIPS": "2938000", "POPULATION": 508090, "POP_CLASS": 10, "POP_SQMI": 1593.8, "SQMI": 318.79, "CAPITAL": "" }, "geometry": { "type": "Point", "coordinates": [ -94.588092696999979, 39.102539819000071 ] } },
{ "type": "Feature", "properties": { "fid": 2335, "OBJECTID": 2335, "NAME": "Lee's Summit", "CLASS": "city", "STATE_ABBR": "MO", "STATE_FIPS": "29", "PLACE_FIPS": "2941348", "POPULATION": 101108, "POP_CLASS": 8, "POP_SQMI": 1534.0, "SQMI": 65.91, "CAPITAL": "" }, "geometry": { "type": "Point", "coordinates": [ -94.381476198999962, 38.91718293100007 ] } },
{ "type": "Feature", "properties": { "fid": 2360, "OBJECTID": 2360, "NAME": "St. Louis", "CLASS": "city", "STATE_ABBR": "MO", "STATE_FIPS": "29", "PLACE_FIPS": "2965000", "POPULATION": 301578, "POP_CLASS": 9, "POP_SQMI": 4555.6, "SQMI": 66.2, "CAPITAL": "" }, "geometry": { "type": "Point", "coordinates": [ -90.245176108999942, 38.635771074000047 ] } },
{ "type": "Feature", "properties": { "fid": 2365, "OBJECTID": 2365, "NAME": "Springfield", "CLASS": "city", "STATE_ABBR": "MO", "STATE_FIPS": "29", "PLACE_FIPS": "2970000", "POPULATION": 169176, "POP_CLASS": 8, "POP_SQMI": 2038.0, "SQMI": 83.01, "CAPITAL": "" }, "geometry": { "type": "Point", "coordinates": [ -93.292089946999965, 37.194438419000051 ] } },
{ "type": "Feature", "properties": { "fid": 2377, "OBJECTID": 2377, "NAME": "Billings", "CLASS": "city", "STATE_ABBR": "MT", "STATE_FIPS": "30", "PLACE_FIPS": "3006550", "POPULATION": 117116, "POP_CLASS": 8, "POP_SQMI": 2609.0, "SQMI": 44.89, "CAPITAL": "" }, "geometry": { "type": "Point", "coordinates": [ -108.510742719999939, 45.782064736000052 ] } },
{ "type": "Feature", "properties": { "fid": 2394, "OBJECTID": 2394, "NAME": "Lincoln", "CLASS": "city", "STATE_ABBR": "NE", "STATE_FIPS": "31", "PLACE_FIPS": "3128000", "POPULATION": 291082, "POP_CLASS": 9, "POP_SQMI": 2938.7, "SQMI": 99.05, "CAPITAL": "State" }, "geometry": { "type": "Point", "coordinates": [ -96.680055479999965, 40.810313543000063 ] } },
{ "type": "Feature", "properties": { "fid": 2397, "OBJECTID": 2397, "NAME": "Omaha", "CLASS": "city", "STATE_ABBR": "NE", "STATE_FIPS": "31", "PLACE_FIPS": "3137000", "POPULATION": 486051, "POP_CLASS": 9, "POP_SQMI": 3347.9, "SQMI": 145.18, "CAPITAL": "" }, "geometry": { "type": "Point", "coordinates": [ -95.969470679999972, 41.264947588000041 ] } },
{ "type": "Feature", "properties": { "fid": 2404, "OBJECTID": 2404, "NAME": "Enterprise", "CLASS": "Census Designated Place", "STATE_ABBR": "NV", "STATE_FIPS": "32", "PLACE_FIPS": "3223770", "POPULATION": 221831, "POP_CLASS": 8, "POP_SQMI": 3361.1, "SQMI": 66.0, "CAPITAL": "" }, "geometry": { "type": "Point", "coordinates": [ -115.215414168999985, 36.018233409000061 ] } },
{ "type": "Feature", "properties": { "fid": 2407, "OBJECTID": 2407, "NAME": "Henderson", "CLASS": "city", "STATE_ABBR": "NV", "STATE_FIPS": "32", "PLACE_FIPS": "3231900", "POPULATION": 317610, "POP_CLASS": 9, "POP_SQMI": 2976.1, "SQMI": 106.72, "CAPITAL": "" }, "geometry": { "type": "Point", "coordinates": [ -114.982471477999979, 36.032688540000038 ] } },
{ "type": "Feature", "properties": { "fid": 2408, "OBJECTID": 2408, "NAME": "Las Vegas", "CLASS": "city", "STATE_ABBR": "NV", "STATE_FIPS": "32", "PLACE_FIPS": "3240000", "POPULATION": 641903, "POP_CLASS": 10, "POP_SQMI": 4524.3, "SQMI": 141.88, "CAPITAL": "" }, "geometry": { "type": "Point", "coordinates": [ -115.135145976, 36.176476440000044 ] } },
{ "type": "Feature", "properties": { "fid": 2410, "OBJECTID": 2410, "NAME": "North Las Vegas", "CLASS": "city", "STATE_ABBR": "NV", "STATE_FIPS": "32", "PLACE_FIPS": "3251800", "POPULATION": 262527, "POP_CLASS": 9, "POP_SQMI": 2590.8, "SQMI": 101.33, "CAPITAL": "" }, "geometry": { "type": "Point", "coordinates": [ -115.133339499999977, 36.223081085000047 ] } },
{ "type": "Feature", "properties": { "fid": 2412, "OBJECTID": 2412, "NAME": "Paradise", "CLASS": "Census Designated Place", "STATE_ABBR": "NV", "STATE_FIPS": "32", "PLACE_FIPS": "3254600", "POPULATION": 191238, "POP_CLASS": 8, "POP_SQMI": 4510.3, "SQMI": 42.4, "CAPITAL": "" }, "geometry": { "type": "Point", "coordinates": [ -115.136898710999958, 36.080721718000063 ] } },
{ "type": "Feature", "properties": { "fid": 2413, "OBJECTID": 2413, "NAME": "Reno", "CLASS": "city", "STATE_ABBR": "NV", "STATE_FIPS": "32", "PLACE_FIPS": "3260600", "POPULATION": 264165, "POP_CLASS": 9, "POP_SQMI": 2366.9, "SQMI": 111.61, "CAPITAL": "" }, "geometry": { "type": "Point", "coordinates": [ -119.829306988999974, 39.53357003900004 ] } },
{ "type": "Feature", "properties": { "fid": 2415, "OBJECTID": 2415, "NAME": "Sparks", "CLASS": "city", "STATE_ABBR": "NV", "STATE_FIPS": "32", "PLACE_FIPS": "3268400", "POPULATION": 108445, "POP_CLASS": 8, "POP_SQMI": 2967.0, "SQMI": 36.55, "CAPITAL": "" }, "geometry": { "type": "Point", "coordinates": [ -119.748294749999957, 39.540603999000041 ] } },
{ "type": "Feature", "properties": { "fid": 2417, "OBJECTID": 2417, "NAME": "Spring Valley", "CLASS": "Census Designated Place", "STATE_ABBR": "NV", "STATE_FIPS": "32", "PLACE_FIPS": "3268585", "POPULATION": 215597, "POP_CLASS": 8, "POP_SQMI": 6071.4, "SQMI": 35.51, "CAPITAL": "" }, "geometry": { "type": "Point", "coordinates": [ -115.261898660999975, 36.098731514000065 ] } },
{ "type": "Feature", "properties": { "fid": 2419, "OBJECTID": 2419, "NAME": "Sunrise Manor", "CLASS": "Census Designated Place", "STATE_ABBR": "NV", "STATE_FIPS": "32", "PLACE_FIPS": "3271400", "POPULATION": 205618, "POP_CLASS": 8, "POP_SQMI": 6099.6, "SQMI": 33.71, "CAPITAL": "" }, "geometry": { "type": "Point", "coordinates": [ -115.048957369999982, 36.178504371000031 ] } },
{ "type": "Feature", "properties": { "fid": 2433, "OBJECTID": 2433, "NAME": "Manchester", "CLASS": "city", "STATE_ABBR": "NH", "STATE_FIPS": "33", "PLACE_FIPS": "3345140", "POPULATION": 115644, "POP_CLASS": 8, "POP_SQMI": 3309.8, "SQMI": 34.94, "CAPITAL": "" }, "geometry": { "type": "Point", "coordinates": [ -71.444532640999967, 42.984444799000073 ] } },
{ "type": "Feature", "properties": { "fid": 2462, "OBJECTID": 2462, "NAME": "Elizabeth", "CLASS": "city", "STATE_ABBR": "NJ", "STATE_FIPS": "34", "PLACE_FIPS": "3421000", "POPULATION": 137298, "POP_CLASS": 8, "POP_SQMI": 11081.4, "SQMI": 12.39, "CAPITAL": "" }, "geometry": { "type": "Point", "coordinates": [ -74.193828348999944, 40.666521087000035 ] } },
{ "type": "Feature", "properties": { "fid": 2492, "OBJECTID": 2492, "NAME": "Jersey City", "CLASS": "city", "STATE_ABBR": "NJ", "STATE_FIPS": "34", "PLACE_FIPS": "3436000", "POPULATION": 292449, "POP_CLASS": 9, "POP_SQMI": 19746.7, "SQMI": 14.81, "CAPITAL": "" }, "geometry": { "type": "Point", "coordinates": [ -74.068925536999984, 40.718854159000045 ] } },
{ "type": "Feature", "properties": { "fid": 2512, "OBJECTID": 2512, "NAME": "Newark", "CLASS": "city", "STATE_ABBR": "NJ", "STATE_FIPS": "34", "PLACE_FIPS": "3451000", "POPULATION": 311549, "POP_CLASS": 9, "POP_SQMI": 12847.4, "SQMI": 24.25, "CAPITAL": "" }, "geometry": { "type": "Point", "coordinates": [ -74.184760499999982, 40.731353094000042 ] } },
{ "type": "Feature", "properties": { "fid": 2525, "OBJECTID": 2525, "NAME": "Paterson", "CLASS": "city", "STATE_ABBR": "NJ", "STATE_FIPS": "34", "PLACE_FIPS": "3457000", "POPULATION": 159732, "POP_CLASS": 8, "POP_SQMI": 18338.9, "SQMI": 8.71, "CAPITAL": "" }, "geometry": { "type": "Point", "coordinates": [ -74.16241817699995, 40.914689091000071 ] } },
{ "type": "Feature", "properties": { "fid": 2577, "OBJECTID": 2577, "NAME": "Albuquerque", "CLASS": "city", "STATE_ABBR": "NM", "STATE_FIPS": "35", "PLACE_FIPS": "3502000", "POPULATION": 564559, "POP_CLASS": 10, "POP_SQMI": 2987.9, "SQMI": 188.95, "CAPITAL": "" }, "geometry": { "type": "Point", "coordinates": [ -106.649432254999965, 35.093261324000025 ] } },
{ "type": "Feature", "properties": { "fid": 2587, "OBJECTID": 2587, "NAME": "Las Cruces", "CLASS": "city", "STATE_ABBR": "NM", "STATE_FIPS": "35", "PLACE_FIPS": "3539380", "POPULATION": 111385, "POP_CLASS": 8, "POP_SQMI": 1446.0, "SQMI": 77.03, "CAPITAL": "" }, "geometry": { "type": "Point", "coordinates": [ -106.777098136999939, 32.302977239000029 ] } },
{ "type": "Feature", "properties": { "fid": 2594, "OBJECTID": 2594, "NAME": "Rio Rancho", "CLASS": "city", "STATE_ABBR": "NM", "STATE_FIPS": "35", "PLACE_FIPS": "3563460", "POPULATION": 104046, "POP_CLASS": 8, "POP_SQMI": 1004.1, "SQMI": 103.62, "CAPITAL": "" }, "geometry": { "type": "Point", "coordinates": [ -106.657566724999981, 35.243931607000036 ] } },
{ "type": "Feature", "properties": { "fid": 2614, "OBJECTID": 2614, "NAME": "Buffalo", "CLASS": "city", "STATE_ABBR": "NY", "STATE_FIPS": "36", "PLACE_FIPS": "3611000", "POPULATION": 278349, "POP_CLASS": 9, "POP_SQMI": 6854.2, "SQMI": 40.61, "CAPITAL": "" }, "geometry": { "type": "Point", "coordinates": [ -78.877876222999987, 42.887237378000066 ] } },
{ "type": "Feature", "properties": { "fid": 2713, "OBJECTID": 2713, "NAME": "New York", "CLASS": "city", "STATE_ABBR": "NY", "STATE_FIPS": "36", "PLACE_FIPS": "3651000", "POPULATION": 8804190, "POP_CLASS": 10, "POP_SQMI": 29255.6, "SQMI": 300.94, "CAPITAL": "" }, "geometry": { "type": "Point", "coordinates": [ -74.010131781999974, 40.710570562000044 ] } },
{ "type": "Feature", "properties": { "fid": 2744, "OBJECTID": 2744, "NAME": "Rochester", "CLASS": "city", "STATE_ABBR": "NY", "STATE_FIPS": "36", "PLACE_FIPS": "3663000", "POPULATION": 211328, "POP_CLASS": 8, "POP_SQMI": 5799.3, "SQMI": 36.44, "CAPITAL": "" }, "geometry": { "type": "Point", "coordinates": [ -77.587961434999954, 43.165327001000037 ] } },
{ "type": "Feature", "properties": { "fid": 2768, "OBJECTID": 2768, "NAME": "Syracuse", "CLASS": "city", "STATE_ABBR": "NY", "STATE_FIPS": "36", "PLACE_FIPS": "3673000", "POPULATION": 148620, "POP_CLASS": 8, "POP_SQMI": 5796.4, "SQMI": 25.64, "CAPITAL": "" }, "geometry": { "type": "Point", "coordinates": [ -76.143767123999964, 43.040923276000058 ] } },
{ "type": "Feature", "properties": { "fid": 2827, "OBJECTID": 2827, "NAME": "Yonkers", "CLASS": "city", "STATE_ABBR": "NY", "STATE_FIPS": "36", "PLACE_FIPS": "3684000", "POPULATION": 211569, "POP_CLASS": 8, "POP_SQMI": 11479.6, "SQMI": 18.43, "CAPITAL": "" }, "geometry": { "type": "Point", "coordinates": [ -73.897329191999972, 40.931253563000041 ] } },
{ "type": "Feature", "properties": { "fid": 2837, "OBJECTID": 2837, "NAME": "Cary", "CLASS": "town", "STATE_ABBR": "NC", "STATE_FIPS": "37", "PLACE_FIPS": "3710740", "POPULATION": 174721, "POP_CLASS": 8, "POP_SQMI": 2896.6, "SQMI": 60.32, "CAPITAL": "" }, "geometry": { "type": "Point", "coordinates": [ -78.777332829999978, 35.785110958000075 ] } },
{ "type": "Feature", "properties": { "fid": 2839, "OBJECTID": 2839, "NAME": "Charlotte", "CLASS": "city", "STATE_ABBR": "NC", "STATE_FIPS": "37", "PLACE_FIPS": "3712000", "POPULATION": 874579, "POP_CLASS": 10, "POP_SQMI": 2818.9, "SQMI": 310.26, "CAPITAL": "" }, "geometry": { "type": "Point", "coordinates": [ -80.830255054999952, 35.207874232000052 ] } },
{ "type": "Feature", "properties": { "fid": 2842, "OBJECTID": 2842, "NAME": "Concord", "CLASS": "city", "STATE_ABBR": "NC", "STATE_FIPS": "37", "PLACE_FIPS": "3714100", "POPULATION": 105240, "POP_CLASS": 8, "POP_SQMI": 1657.1, "SQMI": 63.51, "CAPITAL": "" }, "geometry": { "type": "Point", "coordinates": [ -80.581792143999962, 35.412091262000047 ] } },
{ "type": "Feature", "properties": { "fid": 2845, "OBJECTID": 2845, "NAME": "Durham", "CLASS": "city", "STATE_ABBR": "NC", "STATE_FIPS": "37", "PLACE_FIPS": "3719000", "POPULATION": 283506, "POP_CLASS": 9, "POP_SQMI": 2495.4, "SQMI": 113.61, "CAPITAL": "" }, "geometry": { "type": "Point", "coordinates": [ -78.889344991999963, 35.994596434000073 ] } },
{ "type": "Feature", "properties": { "fid": 2848, "OBJECTID": 2848, "NAME": "Fayetteville", "CLASS": "city", "STATE_ABBR": "NC", "STATE_FIPS": "37", "PLACE_FIPS": "3722920", "POPULATION": 208501, "POP_CLASS": 8, "POP_SQMI": 1389.2, "SQMI": 150.09, "CAPITAL": "" }, "geometry": { "type": "Point", "coordinates": [ -78.875110501999984, 35.052485335000028 ] } },
{ "type": "Feature", "properties": { "fid": 2854, "OBJECTID": 2854, "NAME": "Greensboro", "CLASS": "city", "STATE_ABBR": "NC", "STATE_FIPS": "37", "PLACE_FIPS": "3728000", "POPULATION": 299035, "POP_CLASS": 9, "POP_SQMI": 2218.0, "SQMI": 134.82, "CAPITAL": "" }, "geometry": { "type": "Point", "coordinates": [ -79.799317006999956, 36.067405443000041 ] } },
{ "type": "Feature", "properties": { "fid": 2861, "OBJECTID": 2861, "NAME": "High Point", "CLASS": "city", "STATE_ABBR": "NC", "STATE_FIPS": "37", "PLACE_FIPS": "3731400", "POPULATION": 114059, "POP_CLASS": 8, "POP_SQMI": 1970.3, "SQMI": 57.89, "CAPITAL": "" }, "geometry": { "type": "Point", "coordinates": [ -80.001163389999988, 35.954095014000075 ] } },
{ "type": "Feature", "properties": { "fid": 2893, "OBJECTID": 2893, "NAME": "Raleigh", "CLASS": "city", "STATE_ABBR": "NC", "STATE_FIPS": "37", "PLACE_FIPS": "3755000", "POPULATION": 467665, "POP_CLASS": 9, "POP_SQMI": 3155.4, "SQMI": 148.21, "CAPITAL": "State" }, "geometry": { "type": "Point", "coordinates": [ -78.635394856999937, 35.785342421000053 ] } },
{ "type": "Feature", "properties": { "fid": 2911, "OBJECTID": 2911, "NAME": "Wilmington", "CLASS": "city", "STATE_ABBR": "NC", "STATE_FIPS": "37", "PLACE_FIPS": "3774440", "POPULATION": 115451, "POP_CLASS": 8, "POP_SQMI": 2215.1, "SQMI": 52.12, "CAPITAL": "" }, "geometry": { "type": "Point", "coordinates": [ -77.945189520999975, 34.234522964000064 ] } },
{ "type": "Feature", "properties": { "fid": 2913, "OBJECTID": 2913, "NAME": "Winston-Salem", "CLASS": "city", "STATE_ABBR": "NC", "STATE_FIPS": "37", "PLACE_FIPS": "3775000", "POPULATION": 249545, "POP_CLASS": 8, "POP_SQMI": 1864.1, "SQMI": 133.87, "CAPITAL": "" }, "geometry": { "type": "Point", "coordinates": [ -80.260938157999988, 36.10311549000005 ] } },
{ "type": "Feature", "properties": { "fid": 2916, "OBJECTID": 2916, "NAME": "Fargo", "CLASS": "city", "STATE_ABBR": "ND", "STATE_FIPS": "38", "PLACE_FIPS": "3825700", "POPULATION": 125990, "POP_CLASS": 8, "POP_SQMI": 2529.9, "SQMI": 49.8, "CAPITAL": "" }, "geometry": { "type": "Point", "coordinates": [ -96.806961715999989, 46.867567759000053 ] } },
{ "type": "Feature", "properties": { "fid": 2923, "OBJECTID": 2923, "NAME": "Akron", "CLASS": "city", "STATE_ABBR": "OH", "STATE_FIPS": "39", "PLACE_FIPS": "3901000", "POPULATION": 190469, "POP_CLASS": 8, "POP_SQMI": 3058.8, "SQMI": 62.27, "CAPITAL": "" }, "geometry": { "type": "Point", "coordinates": [ -81.521863540999959, 41.080046031000052 ] } },
{ "type": "Feature", "properties": { "fid": 2956, "OBJECTID": 2956, "NAME": "Cincinnati", "CLASS": "city", "STATE_ABBR": "OH", "STATE_FIPS": "39", "PLACE_FIPS": "3915000", "POPULATION": 309317, "POP_CLASS": 9, "POP_SQMI": 3888.3, "SQMI": 79.55, "CAPITAL": "" }, "geometry": { "type": "Point", "coordinates": [ -84.510923285, 39.107090690000064 ] } },
{ "type": "Feature", "properties": { "fid": 2959, "OBJECTID": 2959, "NAME": "Cleveland", "CLASS": "city", "STATE_ABBR": "OH", "STATE_FIPS": "39", "PLACE_FIPS": "3916000", "POPULATION": 372624, "POP_CLASS": 9, "POP_SQMI": 4786.4, "SQMI": 77.85, "CAPITAL": "" }, "geometry": { "type": "Point", "coordinates": [ -81.687303356999962, 41.505176369000026 ] } },
{ "type": "Feature", "properties": { "fid": 2961, "OBJECTID": 2961, "NAME": "Columbus", "CLASS": "city", "STATE_ABBR": "OH", "STATE_FIPS": "39", "PLACE_FIPS": "3918000", "POPULATION": 905748, "POP_CLASS": 10, "POP_SQMI": 4009.5, "SQMI": 225.9, "CAPITAL": "State" }, "geometry": { "type": "Point", "coordinates": [ -82.988930284999981, 39.988404529000036 ] } },
{ "type": "Feature", "properties": { "fid": 2965, "OBJECTID": 2965, "NAME": "Dayton", "CLASS": "city", "STATE_ABBR": "OH", "STATE_FIPS": "39", "PLACE_FIPS": "3921000", "POPULATION": 137644, "POP_CLASS": 8, "POP_SQMI": 2416.5, "SQMI": 56.96, "CAPITAL": "" }, "geometry": { "type": "Point", "coordinates": [ -84.198783674999959, 39.768711039000038 ] } },
{ "type": "Feature", "properties": { "fid": 3078, "OBJECTID": 3078, "NAME": "Toledo", "CLASS": "city", "STATE_ABBR": "OH", "STATE_FIPS": "39", "PLACE_FIPS": "3977000", "POPULATION": 270871, "POP_CLASS": 9, "POP_SQMI": 3354.0, "SQMI": 80.76, "CAPITAL": "" }, "geometry": { "type": "Point", "coordinates": [ -83.533838786, 41.652288127000077 ] } },
{ "type": "Feature", "properties": { "fid": 3113, "OBJECTID": 3113, "NAME": "Broken Arrow", "CLASS": "city", "STATE_ABBR": "OK", "STATE_FIPS": "40", "PLACE_FIPS": "4009050", "POPULATION": 113540, "POP_CLASS": 8, "POP_SQMI": 1786.9, "SQMI": 63.54, "CAPITAL": "" }, "geometry": { "type": "Point", "coordinates": [ -95.773852168999952, 36.031507313000077 ] } },
{ "type": "Feature", "properties": { "fid": 3136, "OBJECTID": 3136, "NAME": "Norman", "CLASS": "city", "STATE_ABBR": "OK", "STATE_FIPS": "40", "PLACE_FIPS": "4052500", "POPULATION": 128026, "POP_CLASS": 8, "POP_SQMI": 676.2, "SQMI": 189.33, "CAPITAL": "" }, "geometry": { "type": "Point", "coordinates": [ -97.446186498999964, 35.216837751000071 ] } },
{ "type": "Feature", "properties": { "fid": 3137, "OBJECTID": 3137, "NAME": "Oklahoma City", "CLASS": "city", "STATE_ABBR": "OK", "STATE_FIPS": "40", "PLACE_FIPS": "4055000", "POPULATION": 681054, "POP_CLASS": 10, "POP_SQMI": 1097.6, "SQMI": 620.49, "CAPITAL": "State" }, "geometry": { "type": "Point", "coordinates": [ -97.519156401999965, 35.467678231000036 ] } },
{ "type": "Feature", "properties": { "fid": 3146, "OBJECTID": 3146, "NAME": "Tulsa", "CLASS": "city", "STATE_ABBR": "OK", "STATE_FIPS": "40", "PLACE_FIPS": "4075000", "POPULATION": 413066, "POP_CLASS": 9, "POP_SQMI": 2048.7, "SQMI": 201.62, "CAPITAL": "" }, "geometry": { "type": "Point", "coordinates": [ -95.99141579999997, 36.150342702000046 ] } },
{ "type": "Feature", "properties": { "fid": 3165, "OBJECTID": 3165, "NAME": "Eugene", "CLASS": "city", "STATE_ABBR": "OR", "STATE_FIPS": "41", "PLACE_FIPS": "4123850", "POPULATION": 176654, "POP_CLASS": 8, "POP_SQMI": 3992.2, "SQMI": 44.25, "CAPITAL": "" }, "geometry": { "type": "Point", "coordinates": [ -123.087572841999986, 44.048946025000077 ] } },
{ "type": "Feature", "properties": { "fid": 3170, "OBJECTID": 3170, "NAME": "Gresham", "CLASS": "city", "STATE_ABBR": "OR", "STATE_FIPS": "41", "PLACE_FIPS": "4131250", "POPULATION": 114247, "POP_CLASS": 8, "POP_SQMI": 4847.1, "SQMI": 23.57, "CAPITAL": "" }, "geometry": { "type": "Point", "coordinates": [ -122.441194007999968, 45.501983635000045 ] } },
{ "type": "Feature", "properties": { "fid": 3174, "OBJECTID": 3174, "NAME": "Hillsboro", "CLASS": "city", "STATE_ABBR": "OR", "STATE_FIPS": "41", "PLACE_FIPS": "4134100", "POPULATION": 106447, "POP_CLASS": 8, "POP_SQMI": 4145.1, "SQMI": 25.68, "CAPITAL": "" }, "geometry": { "type": "Point", "coordinates": [ -122.979169657999989, 45.523742330000061 ] } },
{ "type": "Feature", "properties": { "fid": 3191, "OBJECTID": 3191, "NAME": "Portland", "CLASS": "city", "STATE_ABBR": "OR", "STATE_FIPS": "41", "PLACE_FIPS": "4159000", "POPULATION": 652503, "POP_CLASS": 10, "POP_SQMI": 4804.5, "SQMI": 135.81, "CAPITAL": "" }, "geometry": { "type": "Point", "coordinates": [ -122.649815630999967, 45.51601557400005 ] } },
{ "type": "Feature", "properties": { "fid": 3195, "OBJECTID": 3195, "NAME": "Salem", "CLASS": "city", "STATE_ABBR": "OR", "STATE_FIPS": "41", "PLACE_FIPS": "4164900", "POPULATION": 175535, "POP_CLASS": 8, "POP_SQMI": 3556.9, "SQMI": 49.35, "CAPITAL": "State" }, "geometry": { "type": "Point", "coordinates": [ -123.024614976999942, 44.923230090000061 ] } },
{ "type": "Feature", "properties": { "fid": 3206, "OBJECTID": 3206, "NAME": "Allentown", "CLASS": "city", "STATE_ABBR": "PA", "STATE_FIPS": "42", "PLACE_FIPS": "4202000", "POPULATION": 125845, "POP_CLASS": 8, "POP_SQMI": 6995.3, "SQMI": 17.99, "CAPITAL": "" }, "geometry": { "type": "Point", "coordinates": [ -75.47207941399995, 40.596170771000061 ] } },
{ "type": "Feature", "properties": { "fid": 3265, "OBJECTID": 3265, "NAME": "Philadelphia", "CLASS": "city", "STATE_ABBR": "PA", "STATE_FIPS": "42", "PLACE_FIPS": "4260000", "POPULATION": 1603797, "POP_CLASS": 10, "POP_SQMI": 11824.8, "SQMI": 135.63, "CAPITAL": "" }, "geometry": { "type": "Point", "coordinates": [ -75.160985428999936, 39.951358504000041 ] } },
{ "type": "Feature", "properties": { "fid": 3267, "OBJECTID": 3267, "NAME": "Pittsburgh", "CLASS": "city", "STATE_ABBR": "PA", "STATE_FIPS": "42", "PLACE_FIPS": "4261000", "POPULATION": 302971, "POP_CLASS": 9, "POP_SQMI": 5192.3, "SQMI": 58.35, "CAPITAL": "" }, "geometry": { "type": "Point", "coordinates": [ -79.976320424999983, 40.439458566000042 ] } },
{ "type": "Feature", "properties": { "fid": 3328, "OBJECTID": 3328, "NAME": "Providence", "CLASS": "city", "STATE_ABBR": "RI", "STATE_FIPS": "44", "PLACE_FIPS": "4459000", "POPULATION": 190934, "POP_CLASS": 8, "POP_SQMI": 10150.7, "SQMI": 18.81, "CAPITAL": "State" }, "geometry": { "type": "Point", "coordinates": [ -71.42188957999997, 41.823534774000052 ] } },
{ "type": "Feature", "properties": { "fid": 3339, "OBJECTID": 3339, "NAME": "Charleston", "CLASS": "city", "STATE_ABBR": "SC", "STATE_FIPS": "45", "PLACE_FIPS": "4513330", "POPULATION": 150227, "POP_CLASS": 8, "POP_SQMI": 1296.6, "SQMI": 115.86, "CAPITAL": "" }, "geometry": { "type": "Point", "coordinates": [ -79.936135456999978, 32.781245177000073 ] } },
{ "type": "Feature", "properties": { "fid": 3341, "OBJECTID": 3341, "NAME": "Columbia", "CLASS": "city", "STATE_ABBR": "SC", "STATE_FIPS": "45", "PLACE_FIPS": "4516000", "POPULATION": 136632, "POP_CLASS": 8, "POP_SQMI": 978.4, "SQMI": 139.65, "CAPITAL": "State" }, "geometry": { "type": "Point", "coordinates": [ -81.043497780999985, 33.999733827000057 ] } },
{ "type": "Feature", "properties": { "fid": 3365, "OBJECTID": 3365, "NAME": "North Charleston", "CLASS": "city", "STATE_ABBR": "SC", "STATE_FIPS": "45", "PLACE_FIPS": "4550875", "POPULATION": 114852, "POP_CLASS": 8, "POP_SQMI": 1471.9, "SQMI": 78.03, "CAPITAL": "" }, "geometry": { "type": "Point", "coordinates": [ -80.00897882199996, 32.876863135000065 ] } },
{ "type": "Feature", "properties": { "fid": 3390, "OBJECTID": 3390, "NAME": "Sioux Falls", "CLASS": "city", "STATE_ABBR": "SD", "STATE_FIPS": "46", "PLACE_FIPS": "4659020", "POPULATION": 192517, "POP_CLASS": 8, "POP_SQMI": 2417.6, "SQMI": 79.63, "CAPITAL": "" }, "geometry": { "type": "Point", "coordinates": [ -96.73077326799995, 43.538430959000038 ] } },
{ "type": "Feature", "properties": { "fid": 3401, "OBJECTID": 3401, "NAME": "Chattanooga", "CLASS": "city", "STATE_ABBR": "TN", "STATE_FIPS": "47", "PLACE_FIPS": "4714000", "POPULATION": 181099, "POP_CLASS": 8, "POP_SQMI": 1206.7, "SQMI": 150.08, "CAPITAL": "" }, "geometry": { "type": "Point", "coordinates": [ -85.30521377599996, 35.042921598000078 ] } },
{ "type": "Feature", "properties": { "fid": 3402, "OBJECTID": 3402, "NAME": "Clarksville", "CLASS": "city", "STATE_ABBR": "TN", "STATE_FIPS": "47", "PLACE_FIPS": "4715160", "POPULATION": 166722, "POP_CLASS": 8, "POP_SQMI": 1665.6, "SQMI": 100.1, "CAPITAL": "" }, "geometry": { "type": "Point", "coordinates": [ -87.355007698999941, 36.530678997000052 ] } },
{ "type": "Feature", "properties": { "fid": 3422, "OBJECTID": 3422, "NAME": "Knoxville", "CLASS": "city", "STATE_ABBR": "TN", "STATE_FIPS": "47", "PLACE_FIPS": "4740000", "POPULATION": 190740, "POP_CLASS": 8, "POP_SQMI": 1829.6, "SQMI": 104.25, "CAPITAL": "" }, "geometry": { "type": "Point", "coordinates": [ -83.921606772999951, 35.960373314000037 ] } },
{ "type": "Feature", "properties": { "fid": 3432, "OBJECTID": 3432, "NAME": "Memphis", "CLASS": "city", "STATE_ABBR": "TN", "STATE_FIPS": "47", "PLACE_FIPS": "4748000", "POPULATION": 633104, "POP_CLASS": 10, "POP_SQMI": 2078.3, "SQMI": 304.62, "CAPITAL": "" }, "geometry": { "type": "Point", "coordinates": [ -90.042194460999951, 35.141042269000025 ] } },
{ "type": "Feature", "properties": { "fid": 3437, "OBJECTID": 3437, "NAME": "Murfreesboro", "CLASS": "city", "STATE_ABBR": "TN", "STATE_FIPS": "47", "PLACE_FIPS": "4751560", "POPULATION": 152769, "POP_CLASS": 8, "POP_SQMI": 2424.1, "SQMI": 63.02, "CAPITAL": "" }, "geometry": { "type": "Point", "coordinates": [ -86.409214308999935, 35.850863813000046 ] } },
{ "type": "Feature", "properties": { "fid": 3438, "OBJECTID": 3438, "NAME": "Nashville-Davidson metropolitan government (balance)", "CLASS": "unknown", "STATE_ABBR": "TN", "STATE_FIPS": "47", "PLACE_FIPS": "4752006", "POPULATION": 689447, "POP_CLASS": 10, "POP_SQMI": 1385.9, "SQMI": 497.47, "CAPITAL": "State" }, "geometry": { "type": "Point", "coordinates": [ -86.777307916999973, 36.166471098000045 ] } },
{ "type": "Feature", "properties": { "fid": 3453, "OBJECTID": 3453, "NAME": "Abilene", "CLASS": "city", "STATE_ABBR": "TX", "STATE_FIPS": "48", "PLACE_FIPS": "4801000", "POPULATION": 125182, "POP_CLASS": 8, "POP_SQMI": 1116.8, "SQMI": 112.09, "CAPITAL": "" }, "geometry": { "type": "Point", "coordinates": [ -99.73834605199994, 32.454361446000064 ] } },
{ "type": "Feature", "properties": { "fid": 3458, "OBJECTID": 3458, "NAME": "Allen", "CLASS": "city", "STATE_ABBR": "TX", "STATE_FIPS": "48", "PLACE_FIPS": "4801924", "POPULATION": 104627, "POP_CLASS": 8, "POP_SQMI": 3949.7, "SQMI": 26.49, "CAPITAL": "" }, "geometry": { "type": "Point", "coordinates": [ -96.672667510999986, 33.108853972000077 ] } },
{ "type": "Feature", "properties": { "fid": 3461, "OBJECTID": 3461, "NAME": "Amarillo", "CLASS": "city", "STATE_ABBR": "TX", "STATE_FIPS": "48", "PLACE_FIPS": "4803000", "POPULATION": 200393, "POP_CLASS": 8, "POP_SQMI": 1929.5, "SQMI": 103.86, "CAPITAL": "" }, "geometry": { "type": "Point", "coordinates": [ -101.843662036999945, 35.202362831000073 ] } },
{ "type": "Feature", "properties": { "fid": 3464, "OBJECTID": 3464, "NAME": "Arlington", "CLASS": "city", "STATE_ABBR": "TX", "STATE_FIPS": "48", "PLACE_FIPS": "4804000", "POPULATION": 394266, "POP_CLASS": 9, "POP_SQMI": 3963.7, "SQMI": 99.47, "CAPITAL": "" }, "geometry": { "type": "Point", "coordinates": [ -97.106337971999949, 32.733293928000023 ] } },
{ "type": "Feature", "properties": { "fid": 3467, "OBJECTID": 3467, "NAME": "Austin", "CLASS": "city", "STATE_ABBR": "TX", "STATE_FIPS": "48", "PLACE_FIPS": "4805000", "POPULATION": 961855, "POP_CLASS": 10, "POP_SQMI": 2945.9, "SQMI": 326.51, "CAPITAL": "State" }, "geometry": { "type": "Point", "coordinates": [ -97.741588819999947, 30.266944569000032 ] } },
{ "type": "Feature", "properties": { "fid": 3472, "OBJECTID": 3472, "NAME": "Beaumont", "CLASS": "city", "STATE_ABBR": "TX", "STATE_FIPS": "48", "PLACE_FIPS": "4807000", "POPULATION": 115282, "POP_CLASS": 8, "POP_SQMI": 1352.8, "SQMI": 85.22, "CAPITAL": "" }, "geometry": { "type": "Point", "coordinates": [ -94.102220486999954, 30.081119111000078 ] } },
{ "type": "Feature", "properties": { "fid": 3483, "OBJECTID": 3483, "NAME": "Brownsville", "CLASS": "city", "STATE_ABBR": "TX", "STATE_FIPS": "48", "PLACE_FIPS": "4810768", "POPULATION": 186738, "POP_CLASS": 8, "POP_SQMI": 1286.3, "SQMI": 145.18, "CAPITAL": "" }, "geometry": { "type": "Point", "coordinates": [ -97.497893927999939, 25.905862446000071 ] } },
{ "type": "Feature", "properties": { "fid": 3491, "OBJECTID": 3491, "NAME": "Carrollton", "CLASS": "city", "STATE_ABBR": "TX", "STATE_FIPS": "48", "PLACE_FIPS": "4813024", "POPULATION": 133434, "POP_CLASS": 8, "POP_SQMI": 3564.9, "SQMI": 37.43, "CAPITAL": "" }, "geometry": { "type": "Point", "coordinates": [ -96.890108622999946, 32.974279940000031 ] } },
{ "type": "Feature", "properties": { "fid": 3500, "OBJECTID": 3500, "NAME": "College Station", "CLASS": "city", "STATE_ABBR": "TX", "STATE_FIPS": "48", "PLACE_FIPS": "4815976", "POPULATION": 120511, "POP_CLASS": 8, "POP_SQMI": 2349.1, "SQMI": 51.3, "CAPITAL": "" }, "geometry": { "type": "Point", "coordinates": [ -96.324740709999958, 30.623189823000075 ] } },